[{"state": "Andhra Pradesh 530043", "name": "Vizag Grocery Store", "gps": {"lng": 83.3418433, "lat": 17.7561692}, "city": "Visakhapatnam"}, {"state": "Andhra Pradesh 530016", "name": "More Supermarket", "gps": {"lng": 83.3041576, "lat": 17.7307094}, "city": "Visakhapatnam"}, {"state": "Andhra Pradesh 518002", "name": "Srinu Indian Grocery Store", "gps": {"lng": 78.02951039999999, "lat": 15.8068613}, "city": "Kurnool"}, {"state": "Andhra Pradesh 518001", "name": "Salt & Pepper Retail", "gps": {"lng": 78.0519185, "lat": 15.8295812}, "city": "Kurnool"}, {"state": "Andhra Pradesh 517501", "name": "Rizekart - Online Grocery Store", "gps": {"lng": 79.4297157, "lat": 13.6507513}, "city": "Tirupati"}, {"state": "Andhra Pradesh 520007", "name": "CAPITAL SUPERMARKETS", "gps": {"lng": 80.67616939999999, "lat": 16.487947}, "city": "Vijayawada"}, {"state": "Andhra Pradesh 530022", "name": "Gupta Grocery Stores", "gps": {"lng": 83.3214524, "lat": 17.7395846}, "city": "Visakhapatnam"}, {"state": "Andhra Pradesh 530003", "name": "Karachiwala Departmental Stores", "gps": {"lng": 83.317633, "lat": 17.7231854}, "city": "Visakhapatnam"}, {"state": "Andhra Pradesh 520011", "name": "Airtel Grocery Shop", "gps": {"lng": 80.63762, "lat": 16.5211582}, "city": "Vijayawada"}, {"state": "Andhra Pradesh 524101", "name": "Guduru Stores", "gps": {"lng": 79.851748, "lat": 14.146341}, "city": "Gudur"}, {"state": "Andhra Pradesh 530051", "name": "Freshville Supermarket", "gps": {"lng": 83.209947, "lat": 17.800938}, "city": "Visakhapatnam"}, {"state": "Andhra Pradesh 522006", "name": "Grocery Stores", "gps": {"lng": 80.4143593, "lat": 16.3239752}, "city": "Guntur"}, {"state": "Andhra Pradesh 523001", "name": "Kolluri Mart(K- Mart) (Super Market & Food Court)", "gps": {"lng": 80.04934999999999, "lat": 15.501508}, "city": "Ongole"}, {"state": "Andhra Pradesh 534166", "name": "Grocery store Pentapadu", "gps": {"lng": 81.52622710000001, "lat": 16.7844377}, "city": "Pentapadu"}, {"state": "Andhra Pradesh 520004", "name": "Grocery Store", "gps": {"lng": 80.64964669999999, "lat": 16.5239248}, "city": "Vijayawada"}, {"state": "Andhra Pradesh 533107", "name": "Raghavamma Grocery Store", "gps": {"lng": 81.83465029999999, "lat": 16.9745483}, "city": "Satilite City"}, {"state": "Andhra Pradesh 520003", "name": "Grocery store", "gps": {"lng": 80.6374034, "lat": 16.5199612}, "city": "Vijayawada"}, {"state": "Andhra Pradesh 515005", "name": "grocery store", "gps": {"lng": 77.6080953, "lat": 14.6769969}, "city": "Anantapur"}, {"state": "Andhra Pradesh 533101", "name": "LdsGrocery", "gps": {"lng": 81.79499249999999, "lat": 17.0035122}, "city": "Rajahmundry"}, {"state": "Andhra Pradesh 530018", "name": "Ravikottu Grocery Store", "gps": {"lng": 83.25133249999999, "lat": 17.742799}, "city": "Visakhapatnam"}, {"state": "Arunachal Pradesh 792103", "name": "Bindeshwar Store", "gps": {"lng": 95.8623966, "lat": 27.6663973}, "city": "Namsai"}, {"state": "Daporijo", "name": "Batak Grocery Store", "gps": {"lng": 94.2220759, "lat": 27.9889453}, "city": "Cona"}, {"state": "Arunachal Pradesh 792001", "name": "Billa Shop", "gps": {"lng": 96.1253983, "lat": 27.9079496}, "city": "Tindolong"}, {"state": "Daporijo", "name": "Hina Grocery Store", "gps": {"lng": 94.22737599999999, "lat": 27.9877563}, "city": "Medog"}, {"state": "Arunachal Pradesh 786181", "name": "Pradip Das Grocery Shop", "gps": {"lng": 95.67926279999999, "lat": 27.2897094}, "city": "Margherita Kumar Potty"}, {"state": "Arunachal Pradesh 792103", "name": "Ganesh Kirana Store", "gps": {"lng": 95.86140449999999, "lat": 27.6668769}, "city": "Namsai"}, {"state": "Bomdila", "name": "Babul Store", "gps": {"lng": 92.417863, "lat": 27.263841}, "city": "Kakaling Main Road Near SSB DIG OFFICE"}, {"state": "Arunachal Pradesh 792110", "name": "Roing Market naresh store", "gps": {"lng": 95.8428866, "lat": 28.1371382}, "city": "Roing"}, {"state": "Arunachal Pradesh 792110", "name": "Sangam Lingii Store", "gps": {"lng": 95.8417211, "lat": 28.1370616}, "city": "Roing"}, {"state": "Assam 781012", "name": "The Grocer Supermarket", "gps": {"lng": 91.68535299999999, "lat": 26.160287}, "city": "Guwahati"}, {"state": "Assam 781005", "name": "Barabazzar.com", "gps": {"lng": 91.769554, "lat": 26.164412}, "city": "Guwahati"}, {"state": "Assam 781022", "name": "M/S Sahu Grocery Store", "gps": {"lng": 91.8001213, "lat": 26.1373759}, "city": "Guwahati"}, {"state": "1st floor", "name": "Krossmart.in Supermarket", "gps": {"lng": 91.8106114, "lat": 26.1354837}, "city": "H.no.403"}, {"state": "Assam 781006", "name": "GNRC Medishop Private Limited", "gps": {"lng": 91.7867498, "lat": 26.1488245}, "city": "Guwahati"}, {"state": "Assam 781034", "name": "Annapurna Store", "gps": {"lng": 91.74778839999999, "lat": 26.13951}, "city": "Guwahati"}, {"state": "Assam 781024", "name": "Sarma Stores", "gps": {"lng": 91.7791474, "lat": 26.1669409}, "city": "Guwahati"}, {"state": "Assam 781003", "name": "Maa Grocery Stores", "gps": {"lng": 91.76602779999999, "lat": 26.1837257}, "city": "Guwahati"}, {"state": "Assam 781012", "name": "Patanjali Store", "gps": {"lng": 91.69524229999999, "lat": 26.1600673}, "city": "Guwahati"}, {"state": "Assam 786125", "name": "Patanjali Store", "gps": {"lng": 95.3609664, "lat": 27.4869246}, "city": "Tinsukia"}, {"state": "Assam 781011", "name": "STOP & SHOP", "gps": {"lng": 91.68383209999999, "lat": 26.1440093}, "city": "Guwahati"}, {"state": "Assam 781006", "name": "Aditi Supermarket", "gps": {"lng": 91.8023533, "lat": 26.1389884}, "city": "Guwahati"}, {"state": "Assam 781009", "name": "Chaturbhuj Food Mart", "gps": {"lng": 91.7370753, "lat": 26.1682397}, "city": "Guwahati"}, {"state": "Assam 781003", "name": "Tanz Supermarket", "gps": {"lng": 91.7755016, "lat": 26.1777839}, "city": "Guwahati"}, {"state": "Assam 781005", "name": "Bhogali Food Products PVT. Ltd.", "gps": {"lng": 91.72996839999999, "lat": 26.1495641}, "city": "Guwahati"}, {"state": "Assam 786001", "name": "NS Food Plus", "gps": {"lng": 94.9019069, "lat": 27.4806073}, "city": "Dibrugarh"}, {"state": "Assam 781006", "name": "Grocery Store", "gps": {"lng": 91.7860669, "lat": 26.1583234}, "city": "Guwahati"}, {"state": "Assam 784027", "name": "Singh Grocery Store, Tinmile", "gps": {"lng": 92.82694769999999, "lat": 26.6574536}, "city": "Gutlong Gaon"}, {"state": "Assam 781005", "name": "Bhogali Jalpan", "gps": {"lng": 91.787714, "lat": 26.158928}, "city": "Guwahati"}, {"state": "Assam 783371", "name": "Talukdar Grocery Stores", "gps": {"lng": 90.44571069999999, "lat": 26.2735625}, "city": "Chapar"}, {"state": "Bihar 800026", "name": "AskMe Bihar Grocery Patna", "gps": {"lng": 85.18513349999999, "lat": 25.5932155}, "city": "Patna"}, {"state": "Bihar 800023", "name": "Bihar Foods & General Store", "gps": {"lng": 85.098627, "lat": 25.6165161}, "city": "Patna"}, {"state": "Bihar 800020", "name": "Patna Store", "gps": {"lng": 85.133541, "lat": 25.579901}, "city": "Patna"}, {"state": "Bihar 800001", "name": "Gupta Grocery Store", "gps": {"lng": 85.1177171, "lat": 25.6313674}, "city": "Patna"}, {"state": "Bihar 824111", "name": "Roushan Grocery Store", "gps": {"lng": 84.2834824, "lat": 24.6340243}, "city": "Amba"}, {"state": "Bihar 800013", "name": "Kirana Wale", "gps": {"lng": 85.110011, "lat": 25.62629}, "city": "Patna"}, {"state": "Bihar 855101", "name": "Anzar Grocery Store", "gps": {"lng": 87.7760548, "lat": 26.1850402}, "city": "Sontha"}, {"state": "Bihar 804408", "name": "Bhai Jaan Grocery Store", "gps": {"lng": 84.98767219999999, "lat": 25.2105667}, "city": "Jahanabad"}, {"state": "Bihar 841239", "name": "Ganga Pd. Awadhesh Kr. Grocery Store", "gps": {"lng": 84.1511361, "lat": 26.2383481}, "city": "Mairwa"}, {"state": "Bihar 800002", "name": "Big Basket", "gps": {"lng": 85.0972441, "lat": 25.5823756}, "city": "Patna"}, {"state": "Bihar 803113", "name": "Grocery Shop", "gps": {"lng": 85.48251599999999, "lat": 25.2980508}, "city": "Nirpur"}, {"state": "Bihar 813109", "name": "Grocery shop", "gps": {"lng": 86.9663472, "lat": 24.9652244}, "city": "Lilatari"}, {"state": "Bihar 804435", "name": "Arjun Saw Grocery Store", "gps": {"lng": 84.83019399999999, "lat": 24.9769046}, "city": "Jamuara"}, {"state": "Bihar 802204", "name": "Gupta Grocery Store", "gps": {"lng": 84.3464613, "lat": 25.2673385}, "city": "Hasan Bazar"}, {"state": "Bihar 848211", "name": "Mishra Grocery Store", "gps": {"lng": 86.0029242, "lat": 25.693656}, "city": "Narhan"}, {"state": "Bihar 804452", "name": "Grocery Shop", "gps": {"lng": 85.03928189999999, "lat": 25.3585489}, "city": "Masaurhi"}, {"state": "Bihar 800001", "name": "Patanjali store", "gps": {"lng": 85.1199567, "lat": 25.6143509}, "city": "Patna"}, {"state": "Bihar 852131", "name": "Naushad Grocery Store", "gps": {"lng": 86.5894156, "lat": 26.1104056}, "city": "Supaul"}, {"state": "Bihar 853204", "name": "ANAND & ANAND GROCERY SHOP", "gps": {"lng": 87.0970557, "lat": 25.3864154}, "city": "Naugachia"}, {"state": "Bihar 804408", "name": "Ravi Ranjan Grocery Shop", "gps": {"lng": 84.9932958, "lat": 25.2217097}, "city": "Jahanabad"}, {"state": "Chhattisgarh 492007", "name": "Easy Bazaar Supermarket", "gps": {"lng": 81.663752, "lat": 21.25116}, "city": "Raipur"}, {"state": "Chhattisgarh 492007", "name": "PG MART", "gps": {"lng": 81.67325079999999, "lat": 21.2615759}, "city": "Raipur"}, {"state": "Chhattisgarh 492010", "name": "Home Essentials", "gps": {"lng": 81.5825555, "lat": 21.2580839}, "city": "Raipur"}, {"state": "Chhattisgarh 490006", "name": "Shamim Super Market", "gps": {"lng": 81.33387599999999, "lat": 21.167573}, "city": "Bhilai"}, {"state": "Chhattisgarh 492001", "name": "Sai Grocery Store", "gps": {"lng": 81.6525159, "lat": 21.2519949}, "city": "Raipur"}, {"state": "Chhattisgarh 492001", "name": "Getfresho - Online Grocery", "gps": {"lng": 81.658299, "lat": 21.232989}, "city": "Raipur"}, {"state": "Delhi", "name": "Annpurna Proivison Store Bsp.c.g.", "gps": {"lng": 82.141594, "lat": 22.0731456}, "city": "New Delhi"}, {"state": "Chhattisgarh 492001", "name": "shri saw ji provision store raipur chhattisgarh", "gps": {"lng": 81.6088439, "lat": 21.2622896}, "city": "Raipur"}, {"state": "Chhattisgarh 492001", "name": "Mohta Ghruhasti Stores", "gps": {"lng": 81.636273, "lat": 21.2396499}, "city": "Raipur"}, {"state": "Chhattisgarh 492001", "name": "patanjali store", "gps": {"lng": 81.684099, "lat": 21.2395943}, "city": "Raipur"}, {"state": "Chhattisgarh 492001", "name": "Prakash Stores", "gps": {"lng": 81.6338509, "lat": 21.2421869}, "city": "Raipur"}, {"state": "Chhattisgarh", "name": "Ask Food Mart", "gps": {"lng": 81.6108029, "lat": 21.247846}, "city": "Raipur"}, {"state": "Chhattisgarh 491001", "name": "Sahu Grocery Shop", "gps": {"lng": 81.2959997, "lat": 21.1793998}, "city": "Durg"}, {"state": "Bharatpur", "name": "grocery store", "gps": {"lng": 81.2547044, "lat": 18.6375946}, "city": "kirandul"}, {"state": "Chhattisgarh 493885", "name": "Manisha Genral & Mobile Shop Rajim Gariyaband Chhattisgarh", "gps": {"lng": 81.882324, "lat": 20.962434}, "city": "Rajim"}, {"state": "Chhattisgarh 495551", "name": "RAHUL & SANJAY Grocery Stores", "gps": {"lng": 82.36884239999999, "lat": 21.7516631}, "city": "Sonsari"}, {"state": "Chhattisgarh 497446", "name": "Kumar Grocery Stores", "gps": {"lng": 82.20019889999999, "lat": 23.1980462}, "city": "Jhagrakhand"}, {"state": "Chhattisgarh 495001", "name": "grocery shop", "gps": {"lng": 82.14504459999999, "lat": 22.0765244}, "city": "Bilaspur"}, {"state": "Chhattisgarh 493335", "name": "Hari Om Jaiswal General And Grocery Store.", "gps": {"lng": 82.5584356, "lat": 21.6120045}, "city": "Giraud"}, {"state": "Chhattisgarh 493195", "name": "Chitesh Grocery Store.", "gps": {"lng": 81.9347192, "lat": 21.6174406}, "city": "Bitkuli"}, {"state": "Goa 403515", "name": "Newton's Supermarket", "gps": {"lng": 73.76788119999999, "lat": 15.5179757}, "city": "Candolim"}, {"state": "403517", "name": "Care Store", "gps": {"lng": 73.800218, "lat": 15.618063}, "city": "Goa"}, {"state": "Goa 403707", "name": "Borkars Super Stores", "gps": {"lng": 73.96398429999999, "lat": 15.259723}, "city": "Navelim"}, {"state": "Goa 403001", "name": "Magsons Supercentre", "gps": {"lng": 73.8179344, "lat": 15.4864167}, "city": "Panaji"}, {"state": "Goa 403601", "name": "Borkars Super Stores", "gps": {"lng": 73.9774982, "lat": 15.2800259}, "city": "Margao"}, {"state": "Goa 403401", "name": "Borkars Super Stores", "gps": {"lng": 74.00359379999999, "lat": 15.4010187}, "city": "Ponda"}, {"state": "Goa 403515", "name": "Delfinos Hy Mart", "gps": {"lng": 73.76855499999999, "lat": 15.5161271}, "city": "Candolim"}, {"state": "Goa 403602", "name": "Magsons", "gps": {"lng": 73.961477, "lat": 15.290733}, "city": "Margao"}, {"state": "Goa 403710", "name": "Borkars Super Stores", "gps": {"lng": 73.8763632, "lat": 15.3920393}, "city": "Sancoale"}, {"state": "Goa 403724", "name": "Magsons", "gps": {"lng": 73.9440135, "lat": 15.2296211}, "city": "Varca"}, {"state": "Goa 403002", "name": "Baba Patanjali Chikitsalay and Store", "gps": {"lng": 73.811131, "lat": 15.473281}, "city": "Caranzalem"}, {"state": "Porvorim", "name": "Delfino's", "gps": {"lng": 73.8285156, "lat": 15.520806}, "city": "Teen Building"}, {"state": "Goa 403509", "name": "Larry's Hub", "gps": {"lng": 73.7611995, "lat": 15.5874856}, "city": "Anjuna"}, {"state": "Goa 403507", "name": "Ajay Supermarket", "gps": {"lng": 73.81202240000002, "lat": 15.5854872}, "city": "Mapusa"}, {"state": "Goa 403726", "name": "Magsons Retail", "gps": {"lng": 73.8629562, "lat": 15.3878574}, "city": "Chicalim"}, {"state": "Goa 403001", "name": "Sai Ganesh Grocery Store", "gps": {"lng": 73.8356566, "lat": 15.4963658}, "city": "Panaji"}, {"state": "Goa 403005", "name": "J J Supermarket", "gps": {"lng": 73.846572, "lat": 15.473328}, "city": "Santa Cruz"}, {"state": "Goa 403716", "name": "Shop N Save", "gps": {"lng": 73.9376329, "lat": 15.2483615}, "city": "Benaulim"}, {"state": "Goa 403708", "name": "OSCAR's JUNCTION SUPERMARKET", "gps": {"lng": 73.92964959999999, "lat": 15.3083362}, "city": "Majorda"}, {"state": "Goa 403715", "name": "Grocery Store", "gps": {"lng": 73.9772313, "lat": 15.2101929}, "city": "Chinchinim"}, {"state": "Gujarat 360004", "name": "Salt N Soap Online Grocery Store", "gps": {"lng": 70.78890559999999, "lat": 22.2818354}, "city": "Rajkot"}, {"state": "Gujarat 382027", "name": "D Mart Gandhinagar", "gps": {"lng": 72.63818979999999, "lat": 23.2545702}, "city": "Gandhinagar"}, {"state": "Gujarat 380055", "name": "Hearty Mart Super Market", "gps": {"lng": 72.5329483, "lat": 22.9950453}, "city": "Ahmedabad"}, {"state": "Gujarat 382006", "name": "Jalaram Super Market", "gps": {"lng": 72.63338519999999, "lat": 23.2051212}, "city": "Gandhinagar"}, {"state": "Gujarat 360005", "name": "Salt N Soap Online Grocery Store", "gps": {"lng": 70.7715487, "lat": 22.2813217}, "city": "Rajkot"}, {"state": "Gujarat 382021", "name": "Jaldhara Super Market", "gps": {"lng": 72.6668881, "lat": 23.2299619}, "city": "Gandhinagar"}, {"state": "Gujarat 380015", "name": "Evergreen Supermarket", "gps": {"lng": 72.5213746, "lat": 23.0133751}, "city": "Ahmedabad"}, {"state": "Gujarat 360024", "name": "Rajkot Supermarket", "gps": {"lng": 70.794176, "lat": 22.15656}, "city": "Shapar"}, {"state": "Gujarat 382421", "name": "DelGro : Online Grocery Shopping", "gps": {"lng": 72.6408442, "lat": 23.2168484}, "city": "Gandhinagar"}, {"state": "Gujarat 361006", "name": "Hind SuperMarket", "gps": {"lng": 70.0490179, "lat": 22.4712184}, "city": "Jamnagar"}, {"state": "Gujarat 380009", "name": "Greenobazaar|100% Organic Food Store|Organic Grocery Shop|Corporate Diwali Gifts|Ahmedabad", "gps": {"lng": 72.5696602, "lat": 23.035463}, "city": "Ahmedabad"}, {"state": "Gujarat 382423", "name": "Super Market - Groceries & General Store", "gps": {"lng": 72.6083348, "lat": 23.1939271}, "city": "Gandhinagar"}, {"state": "Gujarat 380015", "name": "Down to Earth - organic food store", "gps": {"lng": 72.5258482, "lat": 23.0413217}, "city": "Ahmedabad"}, {"state": "Gujarat 380028", "name": "Shree Neelkanth Grocery Store", "gps": {"lng": 72.5935686, "lat": 22.9983775}, "city": "Ahmedabad"}, {"state": "Gujarat 382424", "name": "Stop & Shop Supermarket", "gps": {"lng": 72.5896911, "lat": 23.1116294}, "city": "Ahmedabad"}, {"state": "Gujarat 395008", "name": "Sarkar Manya Sastha Grocery Shop", "gps": {"lng": 72.8586449, "lat": 21.2200425}, "city": "Surat"}, {"state": "Gujarat 395007", "name": "Patanjali Store", "gps": {"lng": 72.79491159999999, "lat": 21.1667162}, "city": "Surat"}, {"state": "Gujarat 382170", "name": "Arvind Shop", "gps": {"lng": 72.019379, "lat": 22.8790566}, "city": "Shahpur"}, {"state": "Gujarat 380058", "name": "Hind Supermarket", "gps": {"lng": 72.5045319, "lat": 23.0502576}, "city": "Ahmedabad"}, {"state": "Gujarat", "name": "Hind Super Market", "gps": {"lng": 72.5558041, "lat": 23.1136362}, "city": "Ahmedabad"}, {"state": "160047", "name": "Haryana Store SuperMarket", "gps": {"lng": 76.76481190000001, "lat": 30.7003527}, "city": "Chandigarh"}, {"state": "Haryana 134113", "name": "Haryana Store", "gps": {"lng": 76.84592119999999, "lat": 30.6943194}, "city": "Panchkula"}, {"state": "Haryana 122003", "name": "Needs Supermarket", "gps": {"lng": 77.0983731, "lat": 28.4490148}, "city": "Gurugram"}, {"state": "Haryana 122009", "name": "Needs Supermarket", "gps": {"lng": 77.0873711, "lat": 28.4627323}, "city": "Gurugram"}, {"state": "160047", "name": "Supermarket Haryana", "gps": {"lng": 76.76870799999999, "lat": 30.723237}, "city": "Chandigarh"}, {"state": "Haryana", "name": "Needs Supermarket", "gps": {"lng": 77.0943261, "lat": 28.4514926}, "city": "Gurugram"}, {"state": "Haryana 122002", "name": "Garg Dastak - Grocery Store In DLF Phase 1 - Departmental / Provisional Store In DLF Phase1 Gurgaon", "gps": {"lng": 77.0930724, "lat": 28.476183}, "city": "Gurugram"}, {"state": "Haryana 122002", "name": "The Goodness Store", "gps": {"lng": 77.0878019, "lat": 28.4623402}, "city": "Gurugram"}, {"state": "Haryana 121006", "name": "Organic Hubb - Organic Grocery Store in Faridabad", "gps": {"lng": 77.322056, "lat": 28.369397}, "city": "Faridabad"}, {"state": "Haryana 122010", "name": "Organic India", "gps": {"lng": 77.09771099999999, "lat": 28.466778}, "city": "Gurugram"}, {"state": "Haryana 122002", "name": "Needs Supermarket", "gps": {"lng": 77.1011425, "lat": 28.4456562}, "city": "Gurugram"}, {"state": "Haryana 125001", "name": "Patanjali Online Grocery Store In Hisar, Haryana", "gps": {"lng": 75.715643, "lat": 29.160949}, "city": "Hisar"}, {"state": "Haryana 131001", "name": "HARYANA STORE", "gps": {"lng": 77.0159489, "lat": 28.988325}, "city": "Sonipat"}, {"state": "Delhi 110025", "name": "VPG Stores Pvt. Ltd.", "gps": {"lng": 77.2896313, "lat": 28.5386901}, "city": "New Delhi"}, {"state": "Haryana 122007", "name": "The City Heart Store", "gps": {"lng": 77.06342160000001, "lat": 28.4571795}, "city": "Gurugram"}, {"state": "Haryana 134109", "name": "HnH Store", "gps": {"lng": 76.8464631, "lat": 30.6840317}, "city": "Panchkula"}, {"state": "Haryana 124113", "name": "Ashok Kriyana Store Nigana Haryana 124113", "gps": {"lng": 76.436363, "lat": 28.7775047}, "city": "Nigana"}, {"state": "Haryana 125011", "name": "Patanjali Grocery Store", "gps": {"lng": 75.71694459999999, "lat": 29.1702703}, "city": "Hisar"}, {"state": "Haryana 134115", "name": "Punjab Stores", "gps": {"lng": 76.8665498, "lat": 30.6962525}, "city": "Panchkula"}, {"state": "Haryana 125001", "name": "Patanjali Mega Store", "gps": {"lng": 75.728397, "lat": 29.1451706}, "city": "Hisar"}, {"state": "Himachal Pradesh 176057", "name": "My Earth Store", "gps": {"lng": 76.367643, "lat": 32.185118}, "city": "Dharamsala"}, {"state": "Himachal Pradesh 175001", "name": "The Mega Star - Karyana or Grocery Store", "gps": {"lng": 76.935692, "lat": 31.700626}, "city": "Mandi"}, {"state": "Himachal Pradesh 176061", "name": "Dev General Store", "gps": {"lng": 76.531971, "lat": 32.113448}, "city": "Palampur"}, {"state": "Himachal Pradesh 176306", "name": "Mahajan General Store", "gps": {"lng": 75.98881, "lat": 32.5669172}, "city": "Chamba"}, {"state": "Himachal Pradesh 173001", "name": "Sahni General Store", "gps": {"lng": 77.2968337, "lat": 30.561401}, "city": "Nahan"}, {"state": "Himachal Pradesh 171005", "name": "Ashoka General Store", "gps": {"lng": 77.14003, "lat": 31.099712}, "city": "Shimla"}, {"state": "Himachal Pradesh 175125", "name": "Naveen General Store", "gps": {"lng": 77.1606772, "lat": 31.8465681}, "city": "Bajaura"}, {"state": "Himachal Pradesh", "name": "Jeata General Store Nagjubber", "gps": {"lng": 77.36098919999999, "lat": 31.2366533}, "city": "Shimla"}, {"state": "Himachal Pradesh", "name": "Tanishka General Store", "gps": {"lng": 76.7108392, "lat": 31.6749528}, "city": "Dharamshala"}, {"state": "Himachal Pradesh 175016", "name": "Pinku Grocery Store", "gps": {"lng": 76.7146191, "lat": 31.9428286}, "city": "Mandi"}, {"state": "Himachal Pradesh 176090", "name": "BISHT GENERAL STORE", "gps": {"lng": 76.652956, "lat": 31.855354}, "city": "Sandhol"}, {"state": "Himachal Pradesh 177203", "name": "Sushil General Store", "gps": {"lng": 76.1178159, "lat": 31.6776153}, "city": "Amb"}, {"state": "Himachal Pradesh 176312", "name": "Dheeraj Grocery Shop", "gps": {"lng": 76.0980409, "lat": 32.6246767}, "city": "Bagori Village"}, {"state": "Himachal Pradesh 174315", "name": "Kamal General Store", "gps": {"lng": 76.3537225, "lat": 31.4170578}, "city": "Jakhera"}, {"state": "Himachal Pradesh 175125", "name": "Ravi Bhai General Store", "gps": {"lng": 77.15847939999999, "lat": 31.8764561}, "city": "Shillihar"}, {"state": "Himachal Pradesh 175019", "name": "Sohan Grocery Store", "gps": {"lng": 76.8998233, "lat": 31.5364507}, "city": "Sundernagar"}, {"state": "Himachal Pradesh 175018", "name": "Karma Shop Of Grocery", "gps": {"lng": 76.8786248, "lat": 31.5431524}, "city": "Kalohad"}, {"state": "Himachal Pradesh 175125", "name": "Sonam General Store", "gps": {"lng": 77.1499212, "lat": 31.8813106}, "city": "Bhuntar"}, {"state": "Himachal Pradesh 171001", "name": "A.K.General Store", "gps": {"lng": 77.1699962, "lat": 31.1038548}, "city": "Shimla"}, {"state": "Himachal Pradesh 177001", "name": "Kamal General Store", "gps": {"lng": 76.511989, "lat": 31.68731}, "city": "Hamirpur"}, {"state": "Jammu", "name": "Shree Jain All In One Store", "gps": {"lng": 74.893474, "lat": 32.66967}, "city": "Greater Kailash"}, {"state": "Jammu", "name": "Ravi Grocery Shop", "gps": {"lng": 74.8185723, "lat": 32.7271183}, "city": "Gobind Nagar"}, {"state": "Jammu", "name": "Easy Day", "gps": {"lng": 74.830952, "lat": 32.766933}, "city": "Muthi Road"}, {"state": "Jammu", "name": "Singh Grocery and Gift Shop", "gps": {"lng": 74.8183054, "lat": 32.7277073}, "city": "Amar Colony"}, {"state": "Jharkhand 834002", "name": "SUVIDHA SUPERMART", "gps": {"lng": 85.30620499999999, "lat": 23.3502}, "city": "Ranchi"}, {"state": "Jharkhand 834009", "name": "Hi5 Mart", "gps": {"lng": 85.3757292, "lat": 23.399371}, "city": "Ranchi"}, {"state": "Jharkhand 834001", "name": "Mumtaz Grocery", "gps": {"lng": 85.318585, "lat": 23.360225}, "city": "Ranchi"}, {"state": "Jharkhand", "name": "Tiwary Grocery Stores", "gps": {"lng": 85.3166669, "lat": 23.3510612}, "city": "Ranchi"}, {"state": "Jharkhand 834009", "name": "SUVIDHA SUPERMART", "gps": {"lng": 85.34132199999999, "lat": 23.3891931}, "city": "Ranchi"}, {"state": "Jharkhand 834002", "name": "Shree Guru Grocery Store", "gps": {"lng": 85.3163369, "lat": 23.330288}, "city": "Ranchi"}, {"state": "Jharkhand 831001", "name": "M/S Banmali Sahu - Best Grocery Shop & Departmental Stores in Jamshedpur", "gps": {"lng": 86.20523349999999, "lat": 22.8028982}, "city": "Jamshedpur"}, {"state": "Jharkhand 834001", "name": "Fynkart", "gps": {"lng": 85.324783, "lat": 23.355779}, "city": "Ranchi"}, {"state": "Jharkhand 826001", "name": "Store 2 Door Grocery Delivery", "gps": {"lng": 86.42550399999999, "lat": 23.788774}, "city": "Dhanbad"}, {"state": "Jharkhand 814152", "name": "Dharwadih Grocery Store", "gps": {"lng": 86.61543499999999, "lat": 24.4812955}, "city": "Koeridih"}, {"state": "Jharkhand 829135", "name": "Dubey grocery shop", "gps": {"lng": 85.37294539999999, "lat": 23.6379702}, "city": "Bhurkunda"}, {"state": "Jharkhand 834002", "name": "Jaiswal Grocery Store", "gps": {"lng": 85.3056296, "lat": 23.3496221}, "city": "Ranchi"}, {"state": "Jharkhand 834009", "name": "Bhawani Grocery Shop", "gps": {"lng": 85.3615959, "lat": 23.398915}, "city": "Ranchi"}, {"state": "Jharkhand 825301", "name": "Sanjay Sard Grocery Store", "gps": {"lng": 85.3539785, "lat": 23.992518}, "city": "Hazaribagh"}, {"state": "Jharkhand 835214", "name": "Arvind Store", "gps": {"lng": 84.9558659, "lat": 23.5140936}, "city": "Chanho"}, {"state": "Jharkhand 831001", "name": "Sri Durga Stores", "gps": {"lng": 86.180014, "lat": 22.804308}, "city": "Jamshedpur"}, {"state": "Jharkhand 834002", "name": "Ranchi Bazaar", "gps": {"lng": 85.3005247, "lat": 23.3554979}, "city": "Ranchi"}, {"state": "Jharkhand 834002", "name": "ramswaroop and sons grocery store", "gps": {"lng": 85.3241821, "lat": 23.3373335}, "city": "Ranchi"}, {"state": "Jharkhand 814112", "name": "Sanjay's Grocery Store", "gps": {"lng": 86.6852698, "lat": 24.4976418}, "city": "Deoghar"}, {"state": "Jharkhand 834002", "name": "PAPPU grocery store", "gps": {"lng": 85.32001729999999, "lat": 23.3265319}, "city": "Ranchi"}, {"state": "Karnataka 560038", "name": "Nilgiri's Grocery Store", "gps": {"lng": 77.6448259, "lat": 12.9740735}, "city": "Bengaluru"}, {"state": "Karnataka 560079", "name": "Karnataka Food Civil Supplies Corporation Limited", "gps": {"lng": 77.5337947, "lat": 12.9815419}, "city": "Bengaluru"}, {"state": "Karnataka 560022", "name": "Krishna Stores", "gps": {"lng": 77.539485, "lat": 13.026319}, "city": "Bengaluru"}, {"state": "Karnataka 560062", "name": "Royalmart Supermarket", "gps": {"lng": 77.54602799999999, "lat": 12.881004}, "city": "Bengaluru"}, {"state": "Karnataka 560025", "name": "Royalmart Supermarket", "gps": {"lng": 77.60313, "lat": 12.962912}, "city": "Bengalore"}, {"state": "Karnataka 560066", "name": "Good Food Retail Stores", "gps": {"lng": 77.739914, "lat": 12.957066}, "city": "Bengaluru"}, {"state": "Karnataka 560067", "name": "Big Basket Daily Needs", "gps": {"lng": 77.7574673, "lat": 13.0030141}, "city": "Bengaluru"}, {"state": "Karnataka 560022", "name": "www.towness.com", "gps": {"lng": 77.547276, "lat": 13.01924}, "city": "Bengaluru"}, {"state": "Karnataka 560048", "name": "Big Basket", "gps": {"lng": 77.6851355, "lat": 12.9926922}, "city": "Bengaluru"}, {"state": "Karnataka 560095", "name": "Foodzu Online Grocery Shopping Bangalore", "gps": {"lng": 77.621228, "lat": 12.942456}, "city": "Bengaluru"}, {"state": "Karnataka 560001", "name": "Harman Grocery Store", "gps": {"lng": 77.5996731, "lat": 12.9748149}, "city": "Bengaluru"}, {"state": "Karnataka 560102", "name": "Shop On Supermarket", "gps": {"lng": 77.64946259999999, "lat": 12.8998443}, "city": "Bengaluru"}, {"state": "Karnataka 560038", "name": "Greenlife Organic Grocery Store", "gps": {"lng": 77.6375163, "lat": 12.9775417}, "city": "Bengaluru"}, {"state": "Karnataka 560054", "name": "Uttara Karnataka Food Stores", "gps": {"lng": 77.5589449, "lat": 13.0288913}, "city": "Bengaluru"}, {"state": "Karnataka 560025", "name": "Richmond Supermarket", "gps": {"lng": 77.6041281, "lat": 12.9623239}, "city": "Bengaluru"}, {"state": "Karnataka 560078", "name": "Freshco Supermarket", "gps": {"lng": 77.5969217, "lat": 12.9148212}, "city": "Bengaluru"}, {"state": "Karnataka 560037", "name": "Athulya Grocery Store", "gps": {"lng": 77.70429109999999, "lat": 12.9484463}, "city": "Bengaluru"}, {"state": "Karnataka 560047", "name": "Safa Retail Grocery Store", "gps": {"lng": 77.61429369999999, "lat": 12.9553632}, "city": "Bengaluru"}, {"state": "Karnataka 560034", "name": "Godrej Nature's Basket", "gps": {"lng": 77.63138, "lat": 12.9324225}, "city": "Bengaluru"}, {"state": "Karnataka 560066", "name": "Godrej Nature's Basket", "gps": {"lng": 77.74378709999999, "lat": 12.9567792}, "city": "Bengaluru"}, {"state": "Kerala 680020", "name": "Elite Supermarket", "gps": {"lng": 76.2138195, "lat": 10.5285442}, "city": "Thrissur"}, {"state": "Kerala 695030", "name": "Kada.in Online Supermarket, Thiruvananthpuram", "gps": {"lng": 76.9778793, "lat": 8.5177057}, "city": "Thiruvananthapuram"}, {"state": "Kerala 680005", "name": "Elite Supermarket", "gps": {"lng": 76.224689, "lat": 10.52259}, "city": "Thrissur"}, {"state": "Kerala 683572", "name": "Elite Supermarket", "gps": {"lng": 76.3833475, "lat": 10.2018661}, "city": "Angamaly"}, {"state": "Kerala 680503", "name": "Elite Supermarket", "gps": {"lng": 76.072426, "lat": 10.647101}, "city": "Kunnamkulam"}, {"state": "Kerala 680586", "name": "Supplyco Store", "gps": {"lng": 76.34008349999999, "lat": 10.6948228}, "city": "Chelakkara"}, {"state": "Kerala 673591", "name": "Elite Supermarket.", "gps": {"lng": 76.161447, "lat": 11.6605824}, "city": "Meenangadi"}, {"state": "Kerala 673001", "name": "Thriveni Grocery", "gps": {"lng": 75.782774, "lat": 11.2531152}, "city": "Kozhikode"}, {"state": "Kerala 679329", "name": "Supplyco Maveli Store", "gps": {"lng": 76.23996199999999, "lat": 11.2885684}, "city": "Nilambur"}, {"state": "Kerala 673592", "name": "Maveli stores", "gps": {"lng": 76.2568546, "lat": 11.6599879}, "city": "Sultan Bathery"}, {"state": "Kerala 682038", "name": "Margin Free Supermarket", "gps": {"lng": 76.3321733, "lat": 9.949615699999999}, "city": "Ernakulam"}, {"state": "Kerala 683106", "name": "supplyco supermarket", "gps": {"lng": 76.3188454, "lat": 10.0952749}, "city": "Aluva"}, {"state": "Kerala 676302", "name": "Supplyco Supermarket Tanur", "gps": {"lng": 75.8787033, "lat": 10.9761633}, "city": "Tanur"}, {"state": "Kerala 683110", "name": "Feather E Mart", "gps": {"lng": 76.3173819, "lat": 10.0964843}, "city": "Kochi"}, {"state": "Kerala 690518", "name": "Al Manama Supermarket", "gps": {"lng": 76.53540799999999, "lat": 9.0493288}, "city": "Karunagappally"}, {"state": "Kerala 682001", "name": "Triveni Supermarket", "gps": {"lng": 76.2108397, "lat": 11.619512}, "city": "Kochi"}, {"state": "Kerala 673032", "name": "Elements The Organic Store", "gps": {"lng": 75.77141499999999, "lat": 11.258149}, "city": "Kozhikode"}, {"state": "Kerala 679585", "name": "Panthavoor Palam Ration Shop", "gps": {"lng": 76.0226373, "lat": 10.7502264}, "city": "Alamcode"}, {"state": "Kerala 682314", "name": "More", "gps": {"lng": 76.3855912, "lat": 9.9029005}, "city": "Mulanthuruthy"}, {"state": "Kerala 676505", "name": "Jam Joom Supermarket", "gps": {"lng": 76.08351499999999, "lat": 11.042576}, "city": "Malappuram"}, {"state": "Madhya Pradesh 452007", "name": "Organic Sansar - Organic & Health Food Store, Indore", "gps": {"lng": 75.8656953, "lat": 22.7233492}, "city": "Behind Gandhi Hall"}, {"state": "Madhya Pradesh 482002", "name": "Aapka Rashan", "gps": {"lng": 79.914908, "lat": 23.161731}, "city": "Jabalpur"}, {"state": "Madhya Pradesh 462016", "name": "Ondoor", "gps": {"lng": 77.41784229999999, "lat": 23.207686}, "city": "Bhopal"}, {"state": "Madhya Pradesh 462022", "name": "Kerala Stores", "gps": {"lng": 77.4398858, "lat": 23.2526124}, "city": "Bhopal"}, {"state": "Madhya Pradesh 462036", "name": "Ondoor", "gps": {"lng": 77.3582064, "lat": 23.282847}, "city": "Bhopal"}, {"state": "Madhya Pradesh 462039", "name": "Ondoor Gulmohar", "gps": {"lng": 77.43662619999999, "lat": 23.1898397}, "city": "Bhopal"}, {"state": "Madhya Pradesh 462039", "name": "Ondoor", "gps": {"lng": 77.4348143, "lat": 23.2006181}, "city": "Bhopal"}, {"state": "Madhya Pradesh 452009", "name": "Mall8Door.Com", "gps": {"lng": 75.836366, "lat": 22.686806}, "city": "Indore"}, {"state": "Madhya Pradesh 452007", "name": "Super Kirana Stores", "gps": {"lng": 75.863162, "lat": 22.717217}, "city": "Indore"}, {"state": "Madhya Pradesh 470335", "name": "SHREE Ganesh Grocery Store", "gps": {"lng": 78.96988449999999, "lat": 24.0369605}, "city": "Banda"}, {"state": "Madhya Pradesh", "name": "Shukla ji Grocery Store", "gps": {"lng": 80.9355715, "lat": 24.5813945}, "city": "Mand"}, {"state": "Madhya Pradesh 456010", "name": "Royal Supermarket", "gps": {"lng": 75.7897304, "lat": 23.1765882}, "city": "Ujjain"}, {"state": "Madhya Pradesh 474011", "name": "Gwalior Basket", "gps": {"lng": 78.20344899999999, "lat": 26.2144984}, "city": "Gwalior"}, {"state": "Madhya Pradesh 452018", "name": "The Gourmet Store by Mr.Beans", "gps": {"lng": 75.89702799999999, "lat": 22.723462}, "city": "Indore"}, {"state": "Madhya Pradesh 485771", "name": "'Maihar' Anuj kirana store katni road maihar,India", "gps": {"lng": 80.75676539999999, "lat": 24.2590504}, "city": "Maihar"}, {"state": "Madhya Pradesh 461331", "name": "vishal kanere food corporation", "gps": {"lng": 77.1006456, "lat": 22.3539237}, "city": "Harda"}, {"state": "Madhya Pradesh 462016", "name": "Gori Patanjali Store", "gps": {"lng": 77.422461, "lat": 23.227052}, "city": "Bhopal"}, {"state": "Madhya Pradesh 484001", "name": "jai maa budhi devi grocery shop", "gps": {"lng": 81.3567551, "lat": 23.3250446}, "city": "Shahdol"}, {"state": "Madhya Pradesh 456010", "name": "Sitaram Kailashchandra Grocery Store", "gps": {"lng": 75.7904586, "lat": 23.1795184}, "city": "Ujjain"}, {"state": "Madhya Pradesh 452010", "name": "Grocery Store", "gps": {"lng": 75.8733603, "lat": 22.7606934}, "city": "Indore"}, {"state": "Maharashtra 401203", "name": "Viva Supermarket", "gps": {"lng": 72.8110555, "lat": 19.4200238}, "city": "Nala Sopara"}, {"state": "Maharashtra 400037", "name": "Naaz Supermarket", "gps": {"lng": 72.86337259999999, "lat": 19.0221166}, "city": "Mumbai"}, {"state": "Maharashtra 422101", "name": "Grocery Store", "gps": {"lng": 73.837434, "lat": 19.958243}, "city": "Nashik"}, {"state": "Maharashtra 400076", "name": "Bhakti Grocery store - best for home delivery", "gps": {"lng": 72.9038545, "lat": 19.117377}, "city": "Mumbai"}, {"state": "Maharashtra 400053", "name": "Society Stores", "gps": {"lng": 72.8229028, "lat": 19.1458701}, "city": "Mumbai"}, {"state": "Maharashtra 411001", "name": "Godrej Nature's Basket", "gps": {"lng": 73.89734299999999, "lat": 18.5367881}, "city": "Pune"}, {"state": "Maharashtra 400059", "name": "BonBon", "gps": {"lng": 72.8664324, "lat": 19.1105823}, "city": "Mumbai"}, {"state": "Maharashtra 411007", "name": "Godrej Nature's Basket", "gps": {"lng": 73.8076741, "lat": 18.5637769}, "city": "Pune"}, {"state": "Maharashtra 400050", "name": "Arvind Stores", "gps": {"lng": 72.8293736, "lat": 19.0630686}, "city": "Mumbai"}, {"state": "Maharashtra 421201", "name": "Chandra Deep Grocery Store", "gps": {"lng": 73.0871061, "lat": 19.2067386}, "city": "Dombivli"}, {"state": "Maharashtra 411027", "name": "Vegetable and Grocery Shop", "gps": {"lng": 73.8020834, "lat": 18.5929457}, "city": "Pimpri-Chinchwad"}, {"state": "Maharashtra 400050", "name": "Godrej Nature's Basket Bandra", "gps": {"lng": 72.8318962, "lat": 19.0556937}, "city": "Mumbai"}, {"state": "Maharashtra 400092", "name": "Janata Stores", "gps": {"lng": 72.8556703, "lat": 19.2272093}, "city": "Mumbai"}, {"state": "Maharashtra 400049", "name": "Godrej Nature's Basket", "gps": {"lng": 72.82625089999999, "lat": 19.1066589}, "city": "Mumbai"}, {"state": "Maharashtra 400101", "name": "Godrej Nature's Basket", "gps": {"lng": 72.8728714, "lat": 19.2124299}, "city": "Mumbai"}, {"state": "Maharashtra 400607", "name": "Eden Supermarket", "gps": {"lng": 72.9791911, "lat": 19.2587513}, "city": "Thane"}, {"state": "Maharashtra 400080", "name": "OSCAR SUPERMARKET", "gps": {"lng": 72.95351029999999, "lat": 19.1736412}, "city": "Mumbai"}, {"state": "Maharashtra 422009", "name": "NashikGrocery", "gps": {"lng": 73.776079, "lat": 19.976656}, "city": "Nashik"}, {"state": "Maharashtra 425001", "name": "Navjeevan Super Shop", "gps": {"lng": 75.563604, "lat": 21.0070952}, "city": "Jalgaon"}, {"state": "Maharashtra 400054", "name": "Gangar Stores", "gps": {"lng": 72.8360709, "lat": 19.081705}, "city": "Mumbai"}, {"state": "Manipur 795004", "name": "Lamphel Super Market", "gps": {"lng": 93.9258595, "lat": 24.8183671}, "city": "Imphal"}, {"state": "Manipur 795001", "name": "Namo supermarket", "gps": {"lng": 93.935616, "lat": 24.8104815}, "city": "Imphal"}, {"state": "Manipur 795128", "name": "Keithellakpam Tomba Grocery Shop", "gps": {"lng": 93.7242452, "lat": 24.4337285}, "city": "Phougakchao Ikhai Bazar"}, {"state": "Manipur 795134", "name": "Lamani Grocery Store", "gps": {"lng": 93.8831842, "lat": 24.682473}, "city": "KHA SANJENBAM AWANG LEIKAI"}, {"state": "Manipur 795127", "name": "Khungwar grocery store, Lamkang Colony, chandel", "gps": {"lng": 93.9967999, "lat": 24.3301462}, "city": "Chandel"}, {"state": "Manipur 795004", "name": "M/S G.S. Grocery Shop", "gps": {"lng": 93.93193769999999, "lat": 24.8077161}, "city": "Imphal"}, {"state": "Manipur 795142", "name": "Sareng's Groceries Store", "gps": {"lng": 94.44921380000001, "lat": 25.204089}, "city": "Ukhrul"}, {"state": "Manipur 795142", "name": "Luiram's Groceries Store", "gps": {"lng": 94.4465919, "lat": 25.2131251}, "city": "Ukhrul"}, {"state": "Manipur 795106", "name": "VS Pandey Grocery Shop", "gps": {"lng": 94.0269908, "lat": 25.2728202}, "city": "Senapati"}, {"state": "Manipur 795132", "name": "SOMORJIT GROCERY STORE", "gps": {"lng": 93.8679187, "lat": 24.5310769}, "city": "Komlakhong"}, {"state": "Manipur 795134", "name": "Khaidem Doren's Grocery Shop", "gps": {"lng": 93.8349279, "lat": 24.7220768}, "city": "Top Khabi"}, {"state": "Manipur 795134", "name": "Ibetombi Grocery Store", "gps": {"lng": 93.8330344, "lat": 24.7202881}, "city": "Heigrujam"}, {"state": "Manipur 795015", "name": "Sheela grocery store", "gps": {"lng": 94.097263, "lat": 25.4146781}, "city": "Maram"}, {"state": "Manipur 795132", "name": "Thoudam Grocery Store", "gps": {"lng": 93.9203308, "lat": 24.6463391}, "city": "Makha Leikai"}, {"state": "Manipur 795136", "name": "Raghumani Store", "gps": {"lng": 93.88165269999999, "lat": 24.9420634}, "city": "Imphal"}, {"state": "Manipur 795128", "name": "Patlen Variety Store", "gps": {"lng": 93.6759943, "lat": 24.4182923}, "city": "Khochijang"}, {"state": "Manipur 795005", "name": "Ayub Khan Store", "gps": {"lng": 93.976733, "lat": 24.8020868}, "city": "Imphal"}, {"state": "Manipur 795136", "name": "Khushi Store- Bazar Board", "gps": {"lng": 93.887265, "lat": 24.972318}, "city": "Kanglatongbi"}, {"state": "Manipur", "name": "Sikan Grocery Shop", "gps": {"lng": 93.9423259, "lat": 24.715835}, "city": "Lilong Chajing"}, {"state": "Manipur 795015", "name": "Phurba's Grocery Cum Variety Store.", "gps": {"lng": 94.0973267, "lat": 25.4142799}, "city": "Maram Centre"}, {"state": "Meghalaya 793003", "name": "SD Store (Grocery & Stationary Shop)", "gps": {"lng": 91.89714389999999, "lat": 25.5757439}, "city": "Shillong"}, {"state": "Meghalaya 794001", "name": "Rajesh Grocery Store", "gps": {"lng": 90.219053, "lat": 25.519815}, "city": "Tura"}, {"state": "Meghalaya 794105", "name": "Pileng Grocery Shop", "gps": {"lng": 90.0373357, "lat": 25.6165827}, "city": "Selsella"}, {"state": "Meghalaya 783135", "name": "Sona Grocery Store", "gps": {"lng": 89.89712019999999, "lat": 25.7273723}, "city": "Hatsingimari"}, {"state": "Meghalaya 783135", "name": "Alom Grocery Store", "gps": {"lng": 89.93811409999999, "lat": 25.6674576}, "city": "Tangoan Pt.III"}, {"state": "Meghalaya 793001", "name": "S N Store", "gps": {"lng": 91.89554129999999, "lat": 25.5838465}, "city": "Shillong"}, {"state": "Meghalaya 793003", "name": "R.D Store", "gps": {"lng": 91.90001579999999, "lat": 25.5671599}, "city": "Shillong"}, {"state": "Meghalaya 793150", "name": "S Lapasam Store Iawmuksow Mowkaiaw", "gps": {"lng": 92.4357747, "lat": 25.5232721}, "city": "Mawkaiaw"}, {"state": "Meghalaya 793004", "name": "ALL MARKET Department Store", "gps": {"lng": 91.8771228, "lat": 25.5646637}, "city": "Shillong"}, {"state": "Meghalaya 793001", "name": "K.D. Departmental Store", "gps": {"lng": 91.8989114, "lat": 25.585823}, "city": "Shillong"}, {"state": "Meghalaya 793003", "name": "S.P Store", "gps": {"lng": 91.89741409999999, "lat": 25.5696012}, "city": "Shillong"}, {"state": "Meghalaya 793002", "name": "J.P Store", "gps": {"lng": 91.8698272, "lat": 25.5734772}, "city": "Shillong"}, {"state": "Meghalaya 793004", "name": "Pranabananda Store", "gps": {"lng": 91.87092990000001, "lat": 25.5686594}, "city": "Shillong"}, {"state": "Meghalaya 793011", "name": "C K Store", "gps": {"lng": 91.90052399999999, "lat": 25.57976}, "city": "Shillong"}, {"state": "Meghalaya 793019", "name": "Ex-Service Man Store", "gps": {"lng": 91.9078519, "lat": 25.5831926}, "city": "Shillong"}, {"state": "Meghalaya 793002", "name": "Kapil Store", "gps": {"lng": 91.8703318, "lat": 25.5739369}, "city": "Shillong"}, {"state": "Meghalaya 793004", "name": "Azaad Lyngdoh", "gps": {"lng": 91.876751, "lat": 25.5640162}, "city": "Shillong"}, {"state": "Meghalaya 793003", "name": "DEEPAK STORE", "gps": {"lng": 91.89702419999999, "lat": 25.5733315}, "city": "Shillong"}, {"state": "Meghalaya", "name": "B.K.STORE", "gps": {"lng": 91.8799506, "lat": 25.6188577}, "city": "Shillong"}, {"state": "Meghalaya 794001", "name": "Vinayak Store", "gps": {"lng": 90.217218, "lat": 25.5115478}, "city": "Tura"}, {"state": "Mizoram 796015", "name": "Zoremi Store Dawrveng Sairang, Mizoram Sairang-796410", "gps": {"lng": 92.6534126, "lat": 23.8118194}, "city": "Sairang"}, {"state": "Mizoram", "name": "Nemi Store", "gps": {"lng": 92.72815589999999, "lat": 23.719178}, "city": "Aizawl"}, {"state": "Mizoram", "name": "R K Store", "gps": {"lng": 92.9848561, "lat": 22.4899296}, "city": "Siaha"}, {"state": "Mizoram 796014", "name": "Vishal MEGA MART AIZAWL", "gps": {"lng": 92.7325048, "lat": 23.7533562}, "city": "Aizawl"}, {"state": "Mizoram 796701", "name": "Ramthar, Lunglei", "gps": {"lng": 92.7495546, "lat": 22.877999}, "city": "Lunglei"}, {"state": "Mizoram 796701", "name": "Tluang Tluang Store", "gps": {"lng": 92.7446907, "lat": 22.8913478}, "city": "Lunglei"}, {"state": "Mizoram 796007", "name": "RL Store PowerHouse", "gps": {"lng": 92.717877, "lat": 23.7350873}, "city": "Aizawl"}, {"state": "Mizoram 796014", "name": "ATC Store", "gps": {"lng": 92.7353206, "lat": 23.7624572}, "city": "Aizawl"}, {"state": "Mizoram 796001", "name": "Pick N' Play LRS Store", "gps": {"lng": 92.7174311, "lat": 23.7334763}, "city": "Aizawl"}, {"state": "Mizoram 796261", "name": "Manuni Variety Store", "gps": {"lng": 92.9632462, "lat": 23.6888991}, "city": "Saitual"}, {"state": "Mizoram 796441", "name": "L.V STORE", "gps": {"lng": 92.4907355, "lat": 23.928511}, "city": "Mamit"}, {"state": "Mizoram 796001", "name": "CSD Canteen", "gps": {"lng": 92.7177834, "lat": 23.7287854}, "city": "Aizawl"}, {"state": "Mizoram 796001", "name": "FNS Departmental Store", "gps": {"lng": 92.7191813, "lat": 23.714991}, "city": "Aizawl"}, {"state": "Mizoram 796001", "name": "CSD Canteen (Assam Rifles)", "gps": {"lng": 92.7128639, "lat": 23.7239356}, "city": "Aizawl"}, {"state": "Mizoram 796701", "name": "Bethel Store", "gps": {"lng": 92.7439729, "lat": 22.8897858}, "city": "Lunglei"}, {"state": "Mizoram 796009", "name": "mizoram agencies", "gps": {"lng": 92.7082811, "lat": 23.7398545}, "city": "Aizawl"}, {"state": "Mizoram 796321", "name": "Venglai Bazar", "gps": {"lng": 93.32672769999999, "lat": 23.478665}, "city": "Champhai"}, {"state": "Mizoram 796091", "name": "Bilkhawthlir Street Market (Bazar)", "gps": {"lng": 92.7205066, "lat": 24.3375197}, "city": "Bilkhawthlir"}, {"state": "Mizoram 796001", "name": "Greyhound Building", "gps": {"lng": 92.7170747, "lat": 23.736098}, "city": "Aizawl"}, {"state": "Mizoram 796001", "name": "Mosia Agencies", "gps": {"lng": 92.71763059999999, "lat": 23.7501935}, "city": "Aizawl"}, {"state": "Nagaland 797117", "name": "Supermarket", "gps": {"lng": 93.7388398, "lat": 25.9059136}, "city": "Dimapur"}, {"state": "Nagaland 797113", "name": "Farm Fresh Grocery Store", "gps": {"lng": 93.70557869999999, "lat": 25.9138486}, "city": "Dimapur"}, {"state": "Nagaland 797112", "name": "supermarket near Dimapur, Nagaland construction", "gps": {"lng": 93.736783, "lat": 25.9062538}, "city": "Dimapur"}, {"state": "Nagaland 797001", "name": "VMR Grocery Store", "gps": {"lng": 94.10446639999999, "lat": 25.6685996}, "city": "Kohima"}, {"state": "Nagaland 797112", "name": "Konyak Grocery Shop", "gps": {"lng": 93.7051821, "lat": 25.9095564}, "city": "Dimapur"}, {"state": "Nagaland 797005", "name": "Angami Grocery Store", "gps": {"lng": 94.0951726, "lat": 25.6567181}, "city": "Kohima"}, {"state": "Nagaland 797113", "name": "S H Grocery Shop", "gps": {"lng": 93.70291999999999, "lat": 25.9066176}, "city": "Dimapur"}, {"state": "Nagaland 782480", "name": "Ajit Grocery Shop", "gps": {"lng": 93.6879596, "lat": 25.8939554}, "city": "Dimapur"}, {"state": "Nagaland 797003", "name": "Grocery Shop", "gps": {"lng": 94.118482, "lat": 25.6878928}, "city": "Kohima"}, {"state": "Nagaland 797113", "name": "PK Grocery Shop", "gps": {"lng": 93.71900579999999, "lat": 25.899829}, "city": "Dimapur"}, {"state": "797116", "name": "Kuber Bhandar Grocery Shop", "gps": {"lng": 93.74707579999999, "lat": 25.9076468}, "city": "Dimapur"}, {"state": "Nagaland 797115", "name": "Mishra General Store and Grocery Shop", "gps": {"lng": 93.77553979999999, "lat": 25.8374979}, "city": "Dimapur"}, {"state": "Odisha 751010", "name": "home shop", "gps": {"lng": 85.8613969, "lat": 20.2890305}, "city": "Bhubaneswar"}, {"state": "Odisha 753008", "name": "grocery", "gps": {"lng": 85.86887510000001, "lat": 20.4822029}, "city": "Cuttack"}, {"state": "Odisha 753001", "name": "NEEDS grocery store", "gps": {"lng": 85.8747411, "lat": 20.4749738}, "city": "Cuttack"}, {"state": "Odisha 752002", "name": "Harachandi Grocery Store", "gps": {"lng": 85.8282426, "lat": 19.8204431}, "city": "Puri"}, {"state": "Odisha 768028", "name": "CLEAN GROCERY", "gps": {"lng": 83.6196641, "lat": 21.3353557}, "city": "Bargarh"}, {"state": "Odisha 752100", "name": "Shree Guru Grocery Store", "gps": {"lng": 85.9049347, "lat": 20.2021062}, "city": "Budhipada"}, {"state": "Odisha 751013", "name": "Lifeware Grocery Store", "gps": {"lng": 85.8231528, "lat": 20.2985247}, "city": "Bhubaneswar"}, {"state": "Odisha 756001", "name": "Dada Grocery Store", "gps": {"lng": 86.9206447, "lat": 21.4974266}, "city": "Balasore"}, {"state": "Odisha 751024", "name": "OMFED Store", "gps": {"lng": 85.821117, "lat": 20.3535206}, "city": "Bhubaneswar"}, {"state": "Odisha 751007", "name": "Rashmi Grocery Store", "gps": {"lng": 85.8583823, "lat": 20.2952946}, "city": "Bhubaneswar"}, {"state": "Odisha 756100", "name": "Brundaban Grocery Shop", "gps": {"lng": 86.49600509999999, "lat": 21.0598721}, "city": "Bhadrak"}, {"state": "Odisha 754004", "name": "Sapana Grocery Store", "gps": {"lng": 86.098047, "lat": 20.2082172}, "city": "Barisana"}, {"state": "Odisha 751010", "name": "Jai Maa Santoshi Grocery Shop", "gps": {"lng": 85.854703, "lat": 20.313892}, "city": "Bhubaneswar"}, {"state": "Odisha 760001", "name": "anna grocery shop", "gps": {"lng": 84.791147, "lat": 19.318911}, "city": "Brahmapur"}, {"state": "Odisha 751006", "name": "Patanjali Store", "gps": {"lng": 85.8479673, "lat": 20.25511}, "city": "Bhubaneswar"}, {"state": "Odisha 751024", "name": "Mahima Grocery Store", "gps": {"lng": 85.82689049999999, "lat": 20.3585148}, "city": "Bhubaneswar"}, {"state": "Odisha 752001", "name": "Muna Grocery Shop", "gps": {"lng": 85.8307659, "lat": 19.8115164}, "city": "Puri"}, {"state": "Odisha 751007", "name": "Abhisek Grocery Store", "gps": {"lng": 85.8459422, "lat": 20.288781}, "city": "Bhubaneswar"}, {"state": "Odisha 755009", "name": "Chandaneswar Grocery Shop", "gps": {"lng": 86.2420696, "lat": 20.8286497}, "city": "Maheswar Pur"}, {"state": "Odisha 759001", "name": "Patanjali Store", "gps": {"lng": 85.6008617, "lat": 20.6522741}, "city": "Dhenkanal"}, {"state": "160009", "name": "Punjab Stores - Super market", "gps": {"lng": 76.793264, "lat": 30.747247}, "city": "Chandigarh"}, {"state": "Punjab 148020", "name": "Grocery store & SANDHU TELECOM KUTHALA", "gps": {"lng": 75.7571074, "lat": 30.5219422}, "city": "Ferozepur Kuthala"}, {"state": "Punjab 140301", "name": "The Punjab Store", "gps": {"lng": 76.6502897, "lat": 30.7366469}, "city": "Sahibzada Ajit Singh Nagar"}, {"state": "Punjab 144502", "name": "Arora telecom & grocery store", "gps": {"lng": 75.7898065, "lat": 31.1842635}, "city": "Virk"}, {"state": "Haryana 134115", "name": "Punjab Stores", "gps": {"lng": 76.8665498, "lat": 30.6962525}, "city": "Panchkula"}, {"state": "Punjab 141003", "name": "Superman Super Market & grocery store", "gps": {"lng": 75.8817251, "lat": 30.8749563}, "city": "Ludhiana"}, {"state": "Punjab 140603", "name": "Easy Day", "gps": {"lng": 76.8117182, "lat": 30.6374982}, "city": "Zirakpur"}, {"state": "Punjab 144001", "name": "Manjit Grocery Store", "gps": {"lng": 75.62988279999999, "lat": 31.3122883}, "city": "Jalandhar"}, {"state": "Punjab 144008", "name": "MF Food Store", "gps": {"lng": 75.60887439999999, "lat": 31.32466149999999}, "city": "Jalandhar"}, {"state": "Punjab 140603", "name": "Patanjali Mega Store", "gps": {"lng": 76.82893899999999, "lat": 30.660664}, "city": "Zirakpur"}, {"state": "Punjab 143001", "name": "Patanjali Mega Store", "gps": {"lng": 74.8618249, "lat": 31.6571169}, "city": "Amritsar"}, {"state": "Punjab 141002", "name": "More Store", "gps": {"lng": 75.8410753, "lat": 30.8916317}, "city": "Ludhiana"}, {"state": "Punjab", "name": "Patanjali mega store", "gps": {"lng": 74.8719143, "lat": 31.6340099}, "city": "Amritsar"}, {"state": "Punjab 141012", "name": "Markfed Bazaar", "gps": {"lng": 75.8037315, "lat": 30.8872293}, "city": "Ludhiana"}, {"state": "Punjab 144514", "name": "Super Grocery Store", "gps": {"lng": 76.114638, "lat": 31.120963}, "city": "Nawanshahr"}, {"state": "Punjab 143305", "name": "Bajaj Grocery Store", "gps": {"lng": 74.6185831, "lat": 31.395546}, "city": "Khalra"}, {"state": "Punjab 141002", "name": "Kwality Store", "gps": {"lng": 75.8433132, "lat": 30.8984353}, "city": "Ludhiana"}, {"state": "Punjab 144005", "name": "Kaalu Grocery Store", "gps": {"lng": 75.62629299999999, "lat": 31.29231}, "city": "Jalandhar"}, {"state": "Punjab 160062", "name": "Grocery Store", "gps": {"lng": 76.7459181, "lat": 30.6867786}, "city": "Sahibzada Ajit Singh Nagar"}, {"state": "Punjab 146001", "name": "Shan e Punjab Grocery Store", "gps": {"lng": 75.9136998, "lat": 31.5276769}, "city": "Hoshiarpur"}, {"state": "Rajasthan 302039", "name": "Pinkcitykirana.com", "gps": {"lng": 75.7813118, "lat": 26.951777}, "city": "Jaipur"}, {"state": "Rajasthan 302012", "name": "Rajasthan Store Centre", "gps": {"lng": 75.8048, "lat": 26.92822}, "city": "Jaipur"}, {"state": "Rajasthan 302004", "name": "Ravoos Grocery Store", "gps": {"lng": 75.7872739, "lat": 26.9124702}, "city": "Jaipur"}, {"state": "Rajasthan 302001", "name": "Down to earth organic food store & cafe", "gps": {"lng": 75.8192069, "lat": 26.911179}, "city": "Jaipur"}, {"state": "Rajasthan 342604", "name": "Purnima Kirana Store Borunda Rajasthan", "gps": {"lng": 73.8060568, "lat": 26.4684907}, "city": "Borunda"}, {"state": "Rajasthan 342003", "name": "Galax Organic Food Store", "gps": {"lng": 73.0138479, "lat": 26.2763428}, "city": "Jodhpur"}, {"state": "Rajasthan 342001", "name": "Green Grocery Departmental Store", "gps": {"lng": 73.03761399999999, "lat": 26.254972}, "city": "Jodhpur"}, {"state": "Rajasthan", "name": "AaramShop C/o Bharat Departmental Store", "gps": {"lng": 75.8301372, "lat": 26.8946622}, "city": "Jaipur"}, {"state": "Rajasthan 302001", "name": "AaramShop C/o Raj Kirana & General Store", "gps": {"lng": 75.7363487, "lat": 26.9199839}, "city": "Jaipur"}, {"state": "Rajasthan 302018", "name": "Optimal Kirana Store", "gps": {"lng": 75.78074, "lat": 26.87133}, "city": "Jaipur"}, {"state": "Rajasthan 302017", "name": "Departmental Store", "gps": {"lng": 75.80412, "lat": 26.84787}, "city": "Jaipur"}, {"state": "Rajasthan 302006", "name": "S. B. Distributor - Organic Food Store", "gps": {"lng": 75.78661500000001, "lat": 26.9022604}, "city": "Jaipur"}, {"state": "Rajasthan 306912", "name": "Laxmi Grocery Store", "gps": {"lng": 73.000288, "lat": 25.3254975}, "city": "Takhatgarh"}, {"state": "Rajasthan 324006", "name": "Kirana King Super Store", "gps": {"lng": 75.8409841, "lat": 25.1842674}, "city": "Kota"}, {"state": "Rajasthan 302007", "name": "Patanjali Store", "gps": {"lng": 75.8022649, "lat": 26.8866801}, "city": "Jaipur"}, {"state": "Rajasthan 302021", "name": "Sarita Grocery Store", "gps": {"lng": 75.74638279999999, "lat": 26.8940955}, "city": "Jaipur"}, {"state": "Rajasthan 305601", "name": "Grocery Store", "gps": {"lng": 74.7289342, "lat": 26.2911858}, "city": "Nasirabad"}, {"state": "Rajasthan 324005", "name": "Sethi Grocery Store", "gps": {"lng": 75.8402103, "lat": 25.1498841}, "city": "Kota"}, {"state": "Rajasthan 302017", "name": "Radha Govind Grocery Store", "gps": {"lng": 75.85063099999999, "lat": 26.826323}, "city": "Jaipur"}, {"state": "Rajasthan 313026", "name": "Grocery Store", "gps": {"lng": 73.97636299999999, "lat": 24.0429389}, "city": "Randela"}, {"state": "Sikkim 737102", "name": "Grocery Store", "gps": {"lng": 88.5972905, "lat": 27.307375}, "city": "Gangtok"}, {"state": "Sikkim 737134", "name": "Sushil Kumar Grocery Shop", "gps": {"lng": 88.4942222, "lat": 27.2315228}, "city": "Singtam"}, {"state": "Tamil Nadu 625001", "name": "Sbuyer Online Grocery Store", "gps": {"lng": 78.1146341, "lat": 9.922011699999999}, "city": "Madurai"}, {"state": "Tamil Nadu 600044", "name": "maligakadai.com - An online grocery store", "gps": {"lng": 80.1522713, "lat": 12.9508154}, "city": "Thirusulam"}, {"state": "Tamil Nadu 641001", "name": "Grocery Raja - Online Grocery Store", "gps": {"lng": 76.92673599999999, "lat": 11.037705}, "city": "Coimbatore"}, {"state": "Tamil Nadu 641001", "name": "Door2Door - Online Grocery Shopping Store & Supermarket", "gps": {"lng": 76.95235699999999, "lat": 10.991715}, "city": "Coimbatore"}, {"state": "Tamil Nadu 641045", "name": "Door2Door - Online Grocery Shopping & Departmental Store", "gps": {"lng": 77.002411, "lat": 10.991557}, "city": "Coimbatore"}, {"state": "Tamil Nadu 632006", "name": "PalaSaraku.com", "gps": {"lng": 79.1327254, "lat": 12.9554082}, "city": "Vellore"}, {"state": "Tamil Nadu 600061", "name": "Nilgiris Departmental Store", "gps": {"lng": 80.1936564, "lat": 12.9825338}, "city": "Chennai"}, {"state": "Tamil Nadu 600079", "name": "Namastechennai.com - The online grocery super store in Chennai", "gps": {"lng": 80.27591, "lat": 13.093935}, "city": "Chennai"}, {"state": "Tamil Nadu 620021", "name": "kumudham Department Stores", "gps": {"lng": 78.68326499999999, "lat": 10.766524}, "city": "Tiruchirappalli"}, {"state": "Tamil Nadu 641004", "name": "Nellai Stores", "gps": {"lng": 77.00081, "lat": 11.024576}, "city": "Coimbatore"}, {"state": "Tamil Nadu 600119", "name": "Nilgris Supermarket", "gps": {"lng": 80.22133509999999, "lat": 12.8954106}, "city": "Chennai"}, {"state": "Tamil Nadu 636016", "name": "Jaisuryas Retail", "gps": {"lng": 78.1436323, "lat": 11.6765413}, "city": "Salem"}, {"state": "Tamil Nadu 600040", "name": "Chennai basket", "gps": {"lng": 80.191875, "lat": 13.082939}, "city": "Chennai"}, {"state": "Tamil Nadu 600089", "name": "Grace Super Market", "gps": {"lng": 80.18558159999999, "lat": 13.0318194}, "city": "Chennai"}, {"state": "Tamil Nadu 600010", "name": "Grace super market", "gps": {"lng": 80.245479, "lat": 13.0816049}, "city": "Chennai"}, {"state": "Tamil Nadu 625010", "name": "SARAVANA STORES Groceries", "gps": {"lng": 78.13336079999999, "lat": 9.9317724}, "city": "Madurai"}, {"state": "Tamil Nadu 600119", "name": "Murugan Stores Wholesale Supermarket", "gps": {"lng": 80.226838, "lat": 12.8612294}, "city": "Chennai"}, {"state": "Tamil Nadu 641004", "name": "Nellai Stores", "gps": {"lng": 77.000805, "lat": 11.024206}, "city": "Coimbatore"}, {"state": "Tamil Nadu 600069", "name": "Saravana Stores Supermarket", "gps": {"lng": 80.0953102, "lat": 12.9937197}, "city": "Chennai"}, {"state": "Tamil Nadu 641035", "name": "Door2Door - Online Grocery Shopping Store & Supermarket", "gps": {"lng": 77.0055514, "lat": 11.0822005}, "city": "Coimbatore"}, {"state": "Telangana 500062", "name": "Ushodaya Supermarket, A.S Rao Nagar", "gps": {"lng": 78.55541, "lat": 17.480867}, "city": "Hyderabad"}, {"state": "Telangana 500033", "name": "GainMart - Online Grocery Store & Shopping Hyderabad", "gps": {"lng": 78.40317, "lat": 17.421496}, "city": "Hyderabad"}, {"state": "Telangana 500098", "name": "Ushodaya Supermarket, Boduppal", "gps": {"lng": 78.596712, "lat": 17.407964}, "city": "Hyderabad"}, {"state": "Telangana 500091", "name": "Reliance Fresh grocery store", "gps": {"lng": 78.3952199, "lat": 17.3647965}, "city": "Hyderabad"}, {"state": "Telangana 500027", "name": "Ratnadeep Supermarket", "gps": {"lng": 78.494047, "lat": 17.3898386}, "city": "Hyderabad"}, {"state": "Telangana 500033", "name": "Heritage fresh - Jubilee Hills 36", "gps": {"lng": 78.41271200000001, "lat": 17.428851}, "city": "Hyderabad"}, {"state": "Telangana 500070", "name": "Heritage fresh - Hayathnagar", "gps": {"lng": 78.5940419, "lat": 17.3296162}, "city": "Hyderabad"}, {"state": "Telangana 500012", "name": "Rana Provision Store", "gps": {"lng": 78.463633, "lat": 17.375227}, "city": "Hyderabad"}, {"state": "Telangana 500063", "name": "Balaji Grand Bazar", "gps": {"lng": 78.47638719999999, "lat": 17.4055367}, "city": "Hyderabad"}, {"state": "Telangana 500015", "name": "Ghanshyam Supermarket", "gps": {"lng": 78.50006239999999, "lat": 17.4579999}, "city": "Secunderabad"}, {"state": "Telangana 500052", "name": "New Kerala Store", "gps": {"lng": 78.4257393, "lat": 17.3258536}, "city": "Hyderabad"}, {"state": "Telangana 500062", "name": "Vish Super Market", "gps": {"lng": 78.56220370000001, "lat": 17.4728148}, "city": "Secunderabad"}, {"state": "Telangana 500081", "name": "PATANJALI STORES", "gps": {"lng": 78.3882431, "lat": 17.4419264}, "city": "Hyderabad"}, {"state": "500096", "name": "Vijetha Super Market", "gps": {"lng": 78.410276, "lat": 17.415427}, "city": "Hyderabad"}, {"state": "Telangana 500011", "name": "Kunnus Online Groceries Private Limited", "gps": {"lng": 78.474655, "lat": 17.462552}, "city": "Hyderabad"}, {"state": "Telangana 500018", "name": "Foodworld Supermarkets Limited", "gps": {"lng": 78.443433, "lat": 17.4526899}, "city": "Hyderabad"}, {"state": "Telangana 500056", "name": "Rizekart - Online Grocery Shopping", "gps": {"lng": 78.5398336, "lat": 17.4819575}, "city": "Hyderabad"}, {"state": "Telangana 500008", "name": "G M Kirana General Stores", "gps": {"lng": 78.4118297, "lat": 17.3985781}, "city": "Hyderabad"}, {"state": "Telangana 500083", "name": "Ushodaya Supermarket, Dammaiguda", "gps": {"lng": 78.591838, "lat": 17.500053}, "city": "Secunderabad"}, {"state": "Telangana 500016", "name": "Terra Greens Organic", "gps": {"lng": 78.459239, "lat": 17.437072}, "city": "Hyderabad"}, {"state": "Tripura 799105", "name": "Maamoni grocery store", "gps": {"lng": 91.414476, "lat": 23.447109}, "city": "Tripura"}, {"state": "Tripura 799001", "name": "Arati Grocery store", "gps": {"lng": 91.2905419, "lat": 23.8311367}, "city": "Agartala"}, {"state": "Tripura 799001", "name": "Rahul's grocery store", "gps": {"lng": 91.2947506, "lat": 23.8230878}, "city": "Agartala"}, {"state": "Tripura 799002", "name": "Praojan Grocery Store", "gps": {"lng": 91.2705782, "lat": 23.8429712}, "city": "Agartala"}, {"state": "Tripura 799001", "name": "Krishna Grocery stores", "gps": {"lng": 91.26555719999999, "lat": 23.8295516}, "city": "Agartala"}, {"state": "Tripura 799005", "name": "Singh Stores", "gps": {"lng": 91.28691309999999, "lat": 23.8430524}, "city": "Agartala"}, {"state": "Tripura 799275", "name": "Grocery shop", "gps": {"lng": 91.99969589999999, "lat": 23.9965326}, "city": "Manughat"}, {"state": "Tripura 799014", "name": "Sewak Grocery Shop", "gps": {"lng": 91.27553019999999, "lat": 23.7958973}, "city": "Agartala"}, {"state": "Tripura 799002", "name": "Grocery Shop \u0996\u09cb\u0995\u09a8\u09c7\u09b0 \u09a6\u09cb\u0995\u09be\u09a8", "gps": {"lng": 91.26882599999999, "lat": 23.8505131}, "city": "Agartala"}, {"state": "Tripura 799005", "name": "Suvam Grocery Shop", "gps": {"lng": 91.28875400000001, "lat": 23.847303}, "city": "Agartala"}, {"state": "Tripura 799010", "name": "Baban Shop", "gps": {"lng": 91.2851536, "lat": 23.8484355}, "city": "Agartala"}, {"state": "Tripura 799290", "name": "Saurab's Grocery Store", "gps": {"lng": 92.0243218, "lat": 24.1747804}, "city": "Kumarghat"}, {"state": "Tripura", "name": "Suman's Grocery Shop", "gps": {"lng": 92.2054668, "lat": 24.4387357}, "city": "Ichailalchhara"}, {"state": "Tripura 799155", "name": "Pal's Grocery Shop", "gps": {"lng": 91.4627574, "lat": 23.2489635}, "city": "Belonia"}, {"state": "Tripura 799260", "name": "RPS Grocery Shop", "gps": {"lng": 92.1792804, "lat": 24.2609196}, "city": "Pekuchhara"}, {"state": "Tripura 799251", "name": "Apu's Grocery Shop", "gps": {"lng": 92.2055979, "lat": 24.4399049}, "city": "Ichailalchhara"}, {"state": "Tripura 799035", "name": "Ranirbazar Shopping Complex", "gps": {"lng": 91.3669007, "lat": 23.834677}, "city": "Ranirbazar"}, {"state": "Tripura 799001", "name": "Indian Bakery And Grocery", "gps": {"lng": 91.285287, "lat": 23.8390716}, "city": "Agartala"}, {"state": "Tripura 799005", "name": "Tara Maa Stores", "gps": {"lng": 91.2881835, "lat": 23.8430512}, "city": "Agartala"}, {"state": "Tripura 799001", "name": "M/s Ganesh Stores", "gps": {"lng": 91.2849222, "lat": 23.8274274}, "city": "Agartala"}, {"state": "Uttar Pradesh 201301", "name": "A to Z Grocery Store", "gps": {"lng": 77.376401, "lat": 28.551574}, "city": "Noida"}, {"state": "Uttar Pradesh 201014", "name": "Needs The Supermarket", "gps": {"lng": 77.36225499999999, "lat": 28.643208}, "city": "Ghaziabad"}, {"state": "Uttar Pradesh 201014", "name": "Needs Supermarket", "gps": {"lng": 77.3616618, "lat": 28.6392159}, "city": "Ghaziabad"}, {"state": "Uttar Pradesh 201301", "name": "Store 18 The Supermarket", "gps": {"lng": 77.32298879999999, "lat": 28.5711103}, "city": "Noida"}, {"state": "Uttar Pradesh 201304", "name": "Every Little Thing (ELT) Store", "gps": {"lng": 77.384096, "lat": 28.520383}, "city": "Noida"}, {"state": "Uttar Pradesh 201301", "name": "Safal Grocery Store", "gps": {"lng": 77.3103364, "lat": 28.5838455}, "city": "Noida"}, {"state": "Uttar Pradesh 226010", "name": "Pappu General Store", "gps": {"lng": 80.97985, "lat": 26.86461}, "city": "Lucknow"}, {"state": "Uttar Pradesh 201016", "name": "More Store Supermarket", "gps": {"lng": 77.4350963, "lat": 28.6315141}, "city": "Ghaziabad"}, {"state": "Uttar Pradesh 243122", "name": "Parwana Nagar Grocery Store", "gps": {"lng": 79.4520062, "lat": 28.3968757}, "city": "Bareilly"}, {"state": "Uttar Pradesh 281006", "name": "Dhangar Grocery Store", "gps": {"lng": 77.67108139999999, "lat": 27.4314101}, "city": "Aduki"}, {"state": "Uttar Pradesh 201010", "name": "Needs The Supermarket", "gps": {"lng": 77.345364, "lat": 28.642684}, "city": "Ghaziabad"}, {"state": "Uttar Pradesh 201003", "name": "Sanjay Grocery Store", "gps": {"lng": 77.43051679999999, "lat": 28.6767729}, "city": "Ghaziabad"}, {"state": "Uttar Pradesh 212645", "name": "Santosh Grocery Store", "gps": {"lng": 80.91585429999999, "lat": 25.876014}, "city": "Haswa"}, {"state": "Uttar Pradesh", "name": "Bigbasket Office", "gps": {"lng": 77.4474194, "lat": 28.5351682}, "city": "Noida"}, {"state": "Uttar Pradesh 226021", "name": "Kanha General Store, Grocery Store, Jankipuram Vistar , Lucknow", "gps": {"lng": 80.942081, "lat": 26.941403}, "city": "Near DPS school"}, {"state": "Uttar Pradesh 201001", "name": "Goel Stores", "gps": {"lng": 77.4492681, "lat": 28.6710794}, "city": "Ghaziabad"}, {"state": "Uttar Pradesh 201010", "name": "Home Buddy", "gps": {"lng": 77.3427348, "lat": 28.6411124}, "city": "Ghaziabad"}, {"state": "Uttar Pradesh 201301", "name": "Home Buddy", "gps": {"lng": 77.3378857, "lat": 28.5844022}, "city": "Noida"}, {"state": "Uttar Pradesh 110096", "name": "Sawariya Grocery Store ,New Kondli", "gps": {"lng": 77.3296412, "lat": 28.6028981}, "city": "Delhi"}, {"state": "Uttar Pradesh 201304", "name": "Heena Store", "gps": {"lng": 77.39129539999999, "lat": 28.5293772}, "city": "Noida"}, {"state": "Uttarakhand 248001", "name": "Suvidha Supermarket", "gps": {"lng": 78.0041856, "lat": 30.325328}, "city": "Dehradun"}, {"state": "Uttarakhand 248001", "name": "FRESH n EASY", "gps": {"lng": 78.054026, "lat": 30.332895}, "city": "Dehradun"}, {"state": "Uttarakhand 263139", "name": "Easy Day Store", "gps": {"lng": 79.5158785, "lat": 29.2185569}, "city": "Haldwani"}, {"state": "Uttarakhand 248001", "name": "Therashanwaala.com", "gps": {"lng": 78.0126903, "lat": 30.32333209999999}, "city": "Dehradun"}, {"state": "Uttarakhand 249403", "name": "Shree Provision & Grocery Store", "gps": {"lng": 78.0742667, "lat": 29.9346592}, "city": "Haridwar"}, {"state": "Uttarakhand 248001", "name": "Swagat Super Store", "gps": {"lng": 78.005326, "lat": 30.306516}, "city": "Dehradun"}, {"state": "Uttarakhand 244713", "name": "Easyday Store", "gps": {"lng": 78.9605076, "lat": 29.2071097}, "city": "Kashipur"}, {"state": "Uttarakhand 248001", "name": "SUVIDHA Supermarket | Saharanpur Chowk", "gps": {"lng": 78.0185042, "lat": 30.3080271}, "city": "Dehradun"}, {"state": "Uttarakhand 248001", "name": "Dehradun Mart", "gps": {"lng": 78.0803225, "lat": 29.9222901}, "city": "Dehradun"}, {"state": "Uttarakhand 263001", "name": "Joshi Grocery Store", "gps": {"lng": 79.4527318, "lat": 29.3921802}, "city": "Nainital"}, {"state": "Uttarakhand 248001", "name": "Suvidha Supermarket", "gps": {"lng": 78.055285, "lat": 30.294851}, "city": "Dehradun"}, {"state": "Uttarakhand 246124", "name": "Meherbaan Singh Grocery Store", "gps": {"lng": 78.6325943, "lat": 29.8896502}, "city": "Palansa"}, {"state": "Uttarakhand 248001", "name": "SUVIDHA Supermarket | Time Square Mall", "gps": {"lng": 78.06640639999999, "lat": 30.3275622}, "city": "Dehradun"}, {"state": "Uttarakhand 263139", "name": "Apna Grocery Store", "gps": {"lng": 79.50042479999999, "lat": 29.2036855}, "city": "Haldwani"}, {"state": "Uttarakhand 248179", "name": "Grocery Store", "gps": {"lng": 78.06584629999999, "lat": 30.4601925}, "city": "Mussoorie"}, {"state": "Uttarakhand 262311", "name": "Nitin Grocery Store", "gps": {"lng": 79.8085941, "lat": 28.9415871}, "city": "Nanakmatta"}, {"state": "Uttarakhand 248001", "name": "Rajan Grocery Shop", "gps": {"lng": 78.080136, "lat": 30.29815839999999}, "city": "Dehradun"}, {"state": "Uttarakhand 244713", "name": "Khurana Grocery Store", "gps": {"lng": 78.9786973, "lat": 29.1977695}, "city": "Kashipur"}, {"state": "Uttarakhand 262308", "name": "Bhatt Grocery Shop", "gps": {"lng": 79.97120269999999, "lat": 28.9776678}, "city": "Kutara"}, {"state": "Uttarakhand 246149", "name": "grocery store", "gps": {"lng": 78.5191667, "lat": 29.7457092}, "city": "Kotdwara"}, {"state": "West Bengal 700107", "name": "Arambagh's Food Mart", "gps": {"lng": 88.399478, "lat": 22.513438}, "city": "Kolkata"}, {"state": "West Bengal 700079", "name": "Arambagh's Food Mart", "gps": {"lng": 88.42842, "lat": 22.64728}, "city": "Kolkata"}, {"state": "West Bengal 700075", "name": "Arambagh Food Mart", "gps": {"lng": 88.3934661, "lat": 22.4873112}, "city": "Kolkata"}, {"state": "West Bengal 700065", "name": "delybazar.com", "gps": {"lng": 88.414219, "lat": 22.6423034}, "city": "Kolkata"}, {"state": "West Bengal 700118", "name": "Arambagh's Food Mart", "gps": {"lng": 88.3129988, "lat": 22.564083}, "city": "Howrah"}, {"state": "West Bengal 700075", "name": "Arambagh Food Mart \u0986\u09b0\u09be\u09ae\u09ac\u09be\u0997 \u09ab\u09c1\u09a1 \u09ae\u09be\u09b0\u09cd\u099f", "gps": {"lng": 88.3840147, "lat": 22.4990042}, "city": "Kolkata"}, {"state": "West Bengal 700006", "name": "Rainbow Shop", "gps": {"lng": 88.365912, "lat": 22.586297}, "city": "Kolkata"}, {"state": "West Bengal 700025", "name": "K. P. Agarwal Grocery Shop", "gps": {"lng": 88.345984, "lat": 22.538073}, "city": "Kolkata"}, {"state": "West Bengal", "name": "Big Basket Regional DC", "gps": {"lng": 88.18764809999999, "lat": 22.5655205}, "city": "Howrah"}, {"state": "West Bengal 700020", "name": "Rainbow", "gps": {"lng": 88.353295, "lat": 22.534538}, "city": "Kolkata"}, {"state": "West Bengal 700019", "name": "The Organic Food Store -- The Green Earth", "gps": {"lng": 88.356428, "lat": 22.533266}, "city": "Kolkata"}, {"state": "West Bengal 700054", "name": "JK Life Store", "gps": {"lng": 88.39091330000001, "lat": 22.5725389}, "city": "Kolkata"}, {"state": "West Bengal 711106", "name": "Mahror Bazaar .com | Online Grocery Store Howrah", "gps": {"lng": 88.341543, "lat": 22.600598}, "city": "Howrah"}, {"state": "West Bengal 711227", "name": "Bikrimart", "gps": {"lng": 88.33884789999999, "lat": 22.6420835}, "city": "Howrah"}, {"state": "West Bengal 700040", "name": "Saurov Grocery Shop", "gps": {"lng": 88.359566, "lat": 22.4760536}, "city": "Kolkata"}, {"state": "West Bengal 700060", "name": "Arvind Stores", "gps": {"lng": 88.2985392, "lat": 22.5136766}, "city": "Kolkata"}, {"state": "West Bengal 700047", "name": "Popl's Doorstep Grocery", "gps": {"lng": 88.3723759, "lat": 22.469949}, "city": "Kolkata"}, {"state": "West Bengal 700006", "name": "Patanjali Store", "gps": {"lng": 88.3633, "lat": 22.588296}, "city": "Kolkata"}, {"state": "West Bengal 700023", "name": "Dilip Kumar Shaw Grocery Shop", "gps": {"lng": 88.3190247, "lat": 22.5329739}, "city": "Kolkata"}, {"state": "West Bengal 700040", "name": "Hanuman Food Store", "gps": {"lng": 88.354522, "lat": 22.483593}, "city": "Kolkata"}, {"state": "Andaman and Nicobar Islands 744302", "name": "Kali General Store", "gps": {"lng": 93.92997969999999, "lat": 7.013323499999999}, "city": "Campbell Bay"}, {"state": "Andaman and Nicobar Islands 744104", "name": "imfc", "gps": {"lng": 92.7385535, "lat": 11.6759974}, "city": "Port Blair"}, {"state": "Andaman and Nicobar Islands 744103", "name": "BICHITRA GROCERY STORE", "gps": {"lng": 92.6542299, "lat": 11.7172135}, "city": "Ferrargunj"}, {"state": "Andaman and Nicobar Islands 744103", "name": "Chithar Dept Store", "gps": {"lng": 92.7311077, "lat": 11.654029}, "city": "Port Blair"}, {"state": "Andaman and Nicobar Islands 744202", "name": "Sri Laxmi Stores", "gps": {"lng": 92.9743494, "lat": 13.2457911}, "city": "Subashgram"}, {"state": "Andaman and Nicobar Islands 744101", "name": "S S Food market", "gps": {"lng": 92.73201259999999, "lat": 11.6689652}, "city": "Port Blair"}, {"state": "Andaman and Nicobar Islands 744101", "name": "CCS LTD MAIN STORE", "gps": {"lng": 92.7424736, "lat": 11.6689921}, "city": "Port Blair"}, {"state": "Andaman and Nicobar Islands 744103", "name": "GroceryJar", "gps": {"lng": 92.72959999999999, "lat": 11.64323}, "city": "Port Blair"}, {"state": "Andaman and Nicobar Islands 744103", "name": "KKM STORE", "gps": {"lng": 92.65529939999999, "lat": 11.7192831}, "city": "Ferrargunj"}, {"state": "Andaman and Nicobar Islands 744101", "name": "Mubarak Hyper Market", "gps": {"lng": 92.74038499999999, "lat": 11.665765}, "city": "Port Blair"}, {"state": "Andaman and Nicobar Islands 744103", "name": "Rsn Fruit And Vegetalbe Retail Outlet", "gps": {"lng": 92.72051230000001, "lat": 11.6319666}, "city": "Port Blair"}, {"state": "Andaman and Nicobar Islands 744105", "name": "MLA STORES", "gps": {"lng": 92.71454349999999, "lat": 11.598835}, "city": "Port Blair"}, {"state": "Andaman and Nicobar Islands 744103", "name": "Sri Gokulam Departmental Store", "gps": {"lng": 92.70329, "lat": 11.611827}, "city": "Port Blair"}, {"state": "Andaman and Nicobar Islands 744103", "name": "HASMAT ALI & SONS STORE", "gps": {"lng": 92.7297666, "lat": 11.6431333}, "city": "Port Blair"}, {"state": "Andaman and Nicobar Islands 744105", "name": "Sri Gokulam Departmental Store", "gps": {"lng": 92.7058431, "lat": 11.6060191}, "city": "Port Blair"}, {"state": "Andaman and Nicobar Islands 744103", "name": "Aruna giri store", "gps": {"lng": 92.70268399999999, "lat": 11.6115679}, "city": "Port Blair"}, {"state": "Andaman and Nicobar Islands 744101", "name": "TG Swamy Store", "gps": {"lng": 92.719974, "lat": 11.623711}, "city": "Port Blair"}, {"state": "Andaman and Nicobar Islands 744105", "name": "AYSHA STORE", "gps": {"lng": 92.71358699999999, "lat": 11.594358}, "city": "Port Blair"}, {"state": "Andaman and Nicobar Islands 744104", "name": "Islanders Margin Free Canteen", "gps": {"lng": 92.7387466, "lat": 11.6758397}, "city": "Port Blair"}, {"state": "Andaman and Nicobar Islands 744103", "name": "Arasu & co", "gps": {"lng": 92.6563348, "lat": 11.793056}, "city": "Great Andaman Trunk Rd"}, {"state": "160019", "name": "RLCR-7 Super Market", "gps": {"lng": 76.798067, "lat": 30.73346209999999}, "city": "Chandigarh"}, {"state": "160047", "name": "New Singla General And Provision Store", "gps": {"lng": 76.7683917, "lat": 30.6957921}, "city": "Chandigarh"}, {"state": "160032", "name": "More Supermarket", "gps": {"lng": 76.77548999999999, "lat": 30.7094569}, "city": "Chandigarh"}, {"state": "160019", "name": "Peshawari Supermarket", "gps": {"lng": 76.7912324, "lat": 30.7296356}, "city": "Chandigarh"}, {"state": "160019", "name": "Patiala Kiryana Store", "gps": {"lng": 76.7938667, "lat": 30.7273438}, "city": "Chandigarh"}, {"state": "160047", "name": "Haryana Store SuperMarket", "gps": {"lng": 76.76481190000001, "lat": 30.7003527}, "city": "Chandigarh"}, {"state": "160019", "name": "RIGHT GROCERY", "gps": {"lng": 76.808194, "lat": 30.722728}, "city": "Chandigarh"}, {"state": "160009", "name": "M.G. Supermarket", "gps": {"lng": 76.7935461, "lat": 30.7470112}, "city": "Chandigarh"}, {"state": "160047", "name": "Maggi Departmental Store", "gps": {"lng": 76.759992, "lat": 30.692122}, "city": "Chandigarh"}, {"state": "160035", "name": "US Dollar Store", "gps": {"lng": 76.7580237, "lat": 30.7203235}, "city": "Chandigarh"}, {"state": "160026", "name": "Krishna Karyana Shop", "gps": {"lng": 76.7794133, "lat": 30.733315}, "city": "Chandigarh"}, {"state": "160047", "name": "Supermarket Haryana", "gps": {"lng": 76.76870799999999, "lat": 30.723237}, "city": "Chandigarh"}, {"state": "160014", "name": "Ravi Store", "gps": {"lng": 76.7676403, "lat": 30.7555429}, "city": "Chandigarh"}, {"state": "160019", "name": "Sharma Provision Store", "gps": {"lng": 76.8072196, "lat": 30.7296617}, "city": "Chandigarh"}, {"state": "160019", "name": "Modern Store", "gps": {"lng": 76.8010157, "lat": 30.7357855}, "city": "Chandigarh"}, {"state": "160059", "name": "grocerlive", "gps": {"lng": 76.72035369999999, "lat": 30.7109207}, "city": "Chandigarh"}, {"state": "160018", "name": "Hunsali Organic Farm & Farm Stay", "gps": {"lng": 76.790131, "lat": 30.736035}, "city": "Chandigarh"}, {"state": "160036", "name": "Super Store", "gps": {"lng": 76.748656, "lat": 30.736454}, "city": "Chandigarh"}, {"state": "160022", "name": "Markfed Bazaar", "gps": {"lng": 76.7666519, "lat": 30.7290586}, "city": "Chandigarh"}, {"state": "160201", "name": "Shiv Shankar Confectionery & Departmental Store", "gps": {"lng": 76.835968, "lat": 30.707126}, "city": "Chandigarh"}, {"state": "Dadra and Nagar Haveli 396230", "name": "S Mart the supermarket", "gps": {"lng": 73.00877990000001, "lat": 20.2788615}, "city": "Silvassa"}, {"state": "Dadra and Nagar Haveli 396230", "name": "Avanti Low Price and Medical Store", "gps": {"lng": 73.0057798, "lat": 20.2748756}, "city": "Silvassa"}, {"state": "Dadra and Nagar Haveli 396235", "name": "chandan jayoti store", "gps": {"lng": 72.92940759999999, "lat": 20.2714103}, "city": "Naroli"}, {"state": "Dadra and Nagar Haveli 396230", "name": "Pavan Provision Stores", "gps": {"lng": 73.0021387, "lat": 20.2770195}, "city": "Silvassa"}, {"state": "Dadra and Nagar Haveli 396230", "name": "Sapna Kirana And Stationery", "gps": {"lng": 73.0081197, "lat": 20.2791559}, "city": "Silvassa"}, {"state": "Dadra and Nagar Haveli 396230", "name": "Kamal Kirana Stores", "gps": {"lng": 73.0051652, "lat": 20.2623716}, "city": "Silvassa"}, {"state": "Dadra and Nagar Haveli 396193", "name": "Shiv Shakti Enterprises", "gps": {"lng": 72.96493310000001, "lat": 20.3286421}, "city": "Dadra"}, {"state": "Dadra and Nagar Haveli 396230", "name": "Amit R.J. General Store", "gps": {"lng": 72.99723999999999, "lat": 20.2853365}, "city": "Silvassa"}, {"state": "Dadra and Nagar Haveli 396193", "name": "Pawan Kirana Store", "gps": {"lng": 72.95752019999999, "lat": 20.3335032}, "city": "Dungra"}, {"state": "Dadra and Nagar Haveli 396193", "name": "APNA BAZAR", "gps": {"lng": 72.9581753, "lat": 20.3267328}, "city": "Dadra"}, {"state": "Dadra and Nagar Haveli 396230", "name": "Badshah Genral Store", "gps": {"lng": 73.007637, "lat": 20.276193}, "city": "Silvassa"}, {"state": "Dadra and Nagar Haveli 396193", "name": "Shree Ramdev Super Stores", "gps": {"lng": 72.9666597, "lat": 20.3274923}, "city": "Dadra"}, {"state": "Dadra and Nagar Haveli 396193", "name": "Darshna Provision Store", "gps": {"lng": 72.972392, "lat": 20.3232549}, "city": "Dadra"}, {"state": "Dadra and Nagar Haveli 396193", "name": "Ashapura Kirana &jeneral Store", "gps": {"lng": 72.966858, "lat": 20.3198297}, "city": "Dadra"}, {"state": "Dadra and Nagar Haveli 396193", "name": "Dhanlaxmi Kirana Store", "gps": {"lng": 72.9420787, "lat": 20.3370318}, "city": "Vapi"}, {"state": "396220", "name": "SHREE FOOD CORNER", "gps": {"lng": 72.8322852, "lat": 20.3998085}, "city": "Daman"}, {"state": "Daman and Diu 396210", "name": "Hamara Bazar Super Store", "gps": {"lng": 72.83714599999999, "lat": 20.419979}, "city": "Daman"}, {"state": "Daman and Diu 251519", "name": "Mahalaxmi Kirana & General Stores", "gps": {"lng": 72.84132579999999, "lat": 20.422132}, "city": "Daman"}, {"state": "number7", "name": "Bhola General Store", "gps": {"lng": 72.87922379999999, "lat": 20.3963109}, "city": "Somnath kachigam Road shop"}, {"state": "Daman and Diu 396210", "name": "Maa Palli Kirana & General Stores", "gps": {"lng": 72.831499, "lat": 20.418371}, "city": "Daman"}, {"state": "Daman and Diu 396210", "name": "Ambica Super Store & Medical Store", "gps": {"lng": 72.8390256, "lat": 20.420764}, "city": "Daman"}, {"state": "Daman and Diu 396220", "name": "Shree Food Mart", "gps": {"lng": 72.8323066, "lat": 20.3996228}, "city": "Daman"}, {"state": "Daman and Diu 396210", "name": "Jay Shree Kirana Stores", "gps": {"lng": 72.8450806, "lat": 20.4182088}, "city": "Daman"}, {"state": "Daman and Diu 396210", "name": "Mangal murti pukraj store", "gps": {"lng": 72.8456149, "lat": 20.418249}, "city": "Daman"}, {"state": "Daman and Diu 396215", "name": "Jai Mata Di Kirana And General Store", "gps": {"lng": 72.88193389999999, "lat": 20.3805545}, "city": "Daman"}, {"state": "Daman and Diu 396210", "name": "Mahadev General Store", "gps": {"lng": 72.83948459999999, "lat": 20.4184665}, "city": "Daman"}, {"state": "Daman and Diu 396210", "name": "Mateshwari Kirana Store", "gps": {"lng": 72.851131, "lat": 20.4243053}, "city": "Daman"}, {"state": "Daman and Diu 396210", "name": "Bhagwati Kirana Store Daman, Gujarat", "gps": {"lng": 72.8397317, "lat": 20.428283}, "city": "Marwad"}, {"state": "Daman and Diu 396210", "name": "Krishna Kirana Store", "gps": {"lng": 72.8353005, "lat": 20.4148699}, "city": "Daman"}, {"state": "Daman and Diu 396210", "name": "speed mart super store", "gps": {"lng": 72.833238, "lat": 20.4185448}, "city": "Daman"}, {"state": "Daman and Diu 396215", "name": "ganesh kirana store", "gps": {"lng": 72.87688899999999, "lat": 20.4143462}, "city": "Daman"}, {"state": "Daman and Diu 396210", "name": "Ramdrv kirana store", "gps": {"lng": 72.8616124, "lat": 20.4560676}, "city": "Daman"}, {"state": "Daman and Diu 396210", "name": "Kerala Store", "gps": {"lng": 72.8370863, "lat": 20.4177599}, "city": "Daman"}, {"state": "Daman and Diu 396210", "name": "Speed Mart The Super Store", "gps": {"lng": 72.8332353, "lat": 20.4185287}, "city": "Daman"}, {"state": "Daman and Diu", "name": "Shree Kala Super Store", "gps": {"lng": 72.8412518, "lat": 20.4215147}, "city": "Daman"}, {"state": "Lakshadweep 682555", "name": "Al Ameen Stores", "gps": {"lng": 72.6436484, "lat": 10.5602639}, "city": "Kavaratti"}, {"state": "Lakshadweep 682555", "name": "Al Ameen Stores", "gps": {"lng": 72.63581340000002, "lat": 10.5593204}, "city": "Kavaratti"}, {"state": "Lakshadweep 682559", "name": "Funhilol store", "gps": {"lng": 73.0611654, "lat": 8.289650100000001}, "city": "Minicoy"}, {"state": "110015", "name": "Pure And Sure Organic And Natural Grocery Store", "gps": {"lng": 77.141081, "lat": 28.66234499999999}, "city": "Delhi"}, {"state": "Delhi 110052", "name": "Best grocery store in delhi - Krishna Supermarche 37 - Ashok Vihar", "gps": {"lng": 77.17575, "lat": 28.688455}, "city": "New Delhi"}, {"state": "Delhi 110075", "name": "Rudraditya Grocery Store", "gps": {"lng": 77.04709009999999, "lat": 28.5772135}, "city": "New Delhi"}, {"state": "Delhi 110024", "name": "24X7 Convenience Store", "gps": {"lng": 77.23910099999999, "lat": 28.569714}, "city": "New Delhi"}, {"state": "Delhi 110003", "name": "Hora Grocery Store", "gps": {"lng": 77.22963539999999, "lat": 28.6079082}, "city": "New Delhi"}, {"state": "Delhi 110092", "name": "BazaarCart - Grocery Store in Delhi", "gps": {"lng": 77.31484739999999, "lat": 28.6440561}, "city": "New Delhi"}, {"state": "110086", "name": "Arvind Store", "gps": {"lng": 77.0883913, "lat": 28.7137562}, "city": "Delhi"}, {"state": "Delhi 110021", "name": "Mother Dairy Grocery Store", "gps": {"lng": 77.1770715, "lat": 28.5964197}, "city": "New Delhi"}, {"state": "Delhi 110070", "name": "Krishna Grocery Store", "gps": {"lng": 77.1698945, "lat": 28.5124584}, "city": "New Delhi"}, {"state": "110075", "name": "Reliance Smart - Grocery Store", "gps": {"lng": 77.0331586, "lat": 28.5983022}, "city": "Delhi"}, {"state": "110078", "name": "Budget Basket Online Grocery Store", "gps": {"lng": 77.02808639999999, "lat": 28.6169252}, "city": "Delhi"}, {"state": "110043", "name": "Best Online Grocery Shop", "gps": {"lng": 76.97725299999999, "lat": 28.6016479}, "city": "Delhi"}, {"state": "Delhi 110034", "name": "Ahuja Grocery Store", "gps": {"lng": 77.1377456, "lat": 28.7051746}, "city": "New Delhi"}, {"state": "Delhi 110076", "name": "Shyam Grocery Store", "gps": {"lng": 77.1250814, "lat": 28.5467111}, "city": "New Delhi"}, {"state": "Delhi 110021", "name": "Super Shop-grocery store", "gps": {"lng": 77.17003299999999, "lat": 28.57964}, "city": "New Delhi"}, {"state": "110088", "name": "Mega Bazar Anand Grocery Store", "gps": {"lng": 77.15570629999999, "lat": 28.7106146}, "city": "Delhi"}, {"state": "Delhi 110025", "name": "Grocery Store Okhla", "gps": {"lng": 77.2804068, "lat": 28.5646222}, "city": "New Delhi"}, {"state": "110026", "name": "Krishna Supermarche 37(Best grocery Store in Delhi", "gps": {"lng": 77.12381549999999, "lat": 28.6665465}, "city": "Delhi"}, {"state": "Delhi 110070", "name": "Khandelwal Grocery Store", "gps": {"lng": 77.1593475, "lat": 28.5225737}, "city": "New Delhi"}, {"state": "110078", "name": "Amul Booth & Grocery Store", "gps": {"lng": 77.0384687, "lat": 28.5902779}, "city": "Delhi"}, {"state": "605001", "name": "Sri Vijaya Ganapathy Stores", "gps": {"lng": 79.82878649999999, "lat": 11.9396722}, "city": "Puducherry"}, {"state": "605004", "name": "F & F Supermarket", "gps": {"lng": 79.809859, "lat": 11.911191}, "city": "Puducherry"}, {"state": "605009", "name": "Daily Needs", "gps": {"lng": 79.7933599, "lat": 11.94098}, "city": "Puducherry"}, {"state": "605005", "name": "Nilgiris Green Field", "gps": {"lng": 79.8309271, "lat": 11.934743}, "city": "Puducherry"}, {"state": "605004", "name": "Cost Price Shop", "gps": {"lng": 79.81488999999999, "lat": 11.92053}, "city": "Puducherry"}, {"state": "605001", "name": "Grinde", "gps": {"lng": 79.835118, "lat": 11.935163}, "city": "Puducherry"}, {"state": "605001", "name": "Manakula Vinayagar Stores", "gps": {"lng": 79.829956, "lat": 11.938782}, "city": "Puducherry"}, {"state": "605004", "name": "SRI SAKTHIKUMARAN DEPARMENTAL STORES", "gps": {"lng": 79.811188, "lat": 11.919575}, "city": "Puducherry"}, {"state": "605004", "name": "On Time Supermarket", "gps": {"lng": 79.8107804, "lat": 11.9233379}, "city": "Puducherry"}, {"state": "605003", "name": "Arvind Store", "gps": {"lng": 79.83355999999999, "lat": 11.95422}, "city": "Puducherry"}, {"state": "605013", "name": "Sakthi Murugan Store", "gps": {"lng": 79.80845000000001, "lat": 11.94159}, "city": "Puducherry"}, {"state": "605001", "name": "Aaraamthinai Organics and Naturals", "gps": {"lng": 79.834155, "lat": 11.937762}, "city": "Puducherry"}, {"state": "Puducherry 605008", "name": "Go Pondy Bazaar", "gps": {"lng": 79.80604199999999, "lat": 11.955307}, "city": "Lawspet"}, {"state": "605013", "name": "Mahalakshmi Enterprises", "gps": {"lng": 79.81777, "lat": 11.93243}, "city": "Puducherry"}, {"state": "605005", "name": "Best Needs", "gps": {"lng": 79.8130999, "lat": 11.93587}, "city": "Puducherry"}, {"state": "605006", "name": "Sri Vinayaga Grocery Store", "gps": {"lng": 79.8054425, "lat": 11.9417417}, "city": "Puducherry"}, {"state": "605009", "name": "T.K.S. Rice Store", "gps": {"lng": 79.790347, "lat": 11.940448}, "city": "Puducherry"}, {"state": "Puducherry 605009", "name": "More Food Store", "gps": {"lng": 79.7891183, "lat": 11.9309867}, "city": "Villianur"}, {"state": "605008", "name": "PAPSCO Cost Price Shop", "gps": {"lng": 79.81071519999999, "lat": 11.9497478}, "city": "Puducherry"}, {"state": "605009", "name": "Kalki Store", "gps": {"lng": 79.80672, "lat": 11.9416}, "city": "Puducherry"}]